uii_code,name,region,old_region,province,old_province,city_municipality,old_city_municipality,sector,latitude,longitude,coord_status,is_multi_campus,psgc_observed_region,psgc_observed_province,psgc_observed_municity,psgc_observed_barangay
,AMA Computer College-Cotabato City,BARMM,BARMM,CITY OF COTABATO,CITY OF COTABATO,Cotabato City,Cotabato City,Private,7.2216421,124.2513046,valid,False,19,19087,1908703,1908703014
,Abubakar Computer Learning Center Foundation,BARMM,BARMM,Tawi-Tawi,Tawi-Tawi,Bongao,Bongao,Private,5.0123546,119.7655842,valid,False,19,19070,1907002,1907002033
,Academia de Tecnologia in Mindanao,BARMM,BARMM,CITY OF COTABATO,CITY OF COTABATO,Cotabato City,Cotabato City,Private,7.2046668,124.2310439,valid,False,19,19087,1908703,1908703029
,Adiong Memorial Polytechnic State College,BARMM,BARMM,Lanao Del Sur,Lanao Del Sur,DITSAAN-RAMAIN,DITSAAN-RAMAIN,Public SUC Main,7.9787345,124.3612369,valid,False,19,19036,1903606,1903606048
,Al Bangsamoro Shari'ah and Professional Education College,BARMM,BARMM,Lanao del Sur,Lanao del Sur,Marawi City,Marawi City,Private,8.0051434,124.2801452,valid,False,19,19036,1903617,1903617141
,Antonio R. Pacheco College,BARMM,BARMM,CITY OF COTABATO,CITY OF COTABATO,Cotabato City,Cotabato City,Private,7.217,124.2480011,valid,False,19,19087,1908703,1908703020
,As-Salihein Integrated School Foundation,BARMM,BARMM,Lanao del Sur,Lanao del Sur,Tamparan,Tamparan,Private,7.8740788,124.3295686,valid,False,19,19036,1903626,1903626021
,Asma Khadijah Islamic Academy,BARMM,BARMM,Lanao del Sur,Lanao del Sur,Picong,Picong,Private,7.6907181,123.9415518,valid,False,19,19036,1903635,1903635024
,Bai Malgen Mama College,BARMM,BARMM,Maguindanao,Maguindanao,DATU ODIN SINSUAT,DATU ODIN SINSUAT,Private,7.188889,124.183889,valid,False,19,19087,1908705,1908705013
,Balabagan Trade School,BARMM,BARMM,Lanao Del Sur,Lanao Del Sur,Balabagan,Balabagan,OGS,7.5099424,124.1382876,valid,False,19,19036,1903602,1903602014
,Basilan State College-Lamitan,BARMM,BARMM,Basilan,Basilan,Lamitan City,Lamitan City,Public SUC Satellite,6.6926507,121.9606911,valid,False,09,09901,0990101,0990101047
,Basilan State College-Maluso,BARMM,BARMM,Basilan,Basilan,Maluso,Maluso,Public SUC Satellite,6.6926507,121.9606911,valid,False,09,09901,0990101,0990101047
,Basilan State College-Sta. Clara,BARMM,BARMM,Basilan,Basilan,Lamitan City,Lamitan City,Public SUC Satellite,6.6926507,121.9606911,valid,False,09,09901,0990101,0990101047
,Basilan State College-Tipo-Tipo,BARMM,BARMM,Basilan,Basilan,Tipo-Tipo,Tipo-Tipo,Public SUC Satellite,6.6926507,121.9606911,valid,False,09,09901,0990101,0990101047
,Binnor Pangandaman Integrated College,BARMM,BARMM,Lanao del Sur,Lanao del Sur,Wao,Wao,Private,7.6675967,124.7077665,valid,False,19,19036,1903630,1903630035
,Bubong Marzok Memorial Foundation College,BARMM,BARMM,Lanao Del Sur,Lanao Del Sur,Marawi City,Marawi City,Private,8.001945,124.2873617,valid,False,19,19036,1903617,1903617022
,Cali Paramedical College Foundation,BARMM,BARMM,Lanao Del Sur,Lanao Del Sur,Marawi City,Marawi City,Private,8.0204892,124.2714321,valid,False,19,19036,1903617,1903617044
,Central Sulu College,BARMM,BARMM,Sulu,Sulu,Siasi,Siasi,Private,5.5445782,120.8142574,valid,False,09,09066,0906612,0906612073
,Coland Systems Technology,BARMM,BARMM,CITY OF COTABATO,CITY OF COTABATO,Cotabato City,Cotabato City,Private,7.2164104,124.2450265,valid,False,19,19087,1908703,1908703019
,Colegio de Upi,BARMM,BARMM,Maguindanao,Maguindanao,Upi,Upi,Private,7.0111525,124.1561129,valid,False,19,19087,1908713,1908713016
12008b,Cotabato Foundation College of Science and Technology-Datu Montawal Campus,BARMM,BARMM,Maguindanao,Maguindanao,Pagagawan,Pagagawan,Public SUC Satellite,7.2105459,124.2440172,valid,False,19,19087,1908703,1908703018
12006,Cotabato State University,BARMM,BARMM,CITY OF COTABATO,CITY OF COTABATO,Cotabato City,Cotabato City,Public SUC Main,7.2120945,124.2452807,valid,False,19,19087,1908703,1908703022
,Dansalan Polytechnic College,BARMM,BARMM,Lanao Del Sur,Lanao Del Sur,Marawi City,Marawi City,Private,8.0106974,124.2899954,valid,False,19,19036,1903617,1903617126
,Datu Blo Umpar Adiong Agricultural School Foundation,BARMM,BARMM,Lanao Del Sur,Lanao Del Sur,Marawi City,Marawi City,Private,7.9892902,124.2675433,valid,False,19,19036,1903616,1903616071
,Datu Ibrahim Paglas Memorial College,BARMM,BARMM,Maguindanao,Maguindanao,Datu Paglas,Datu Paglas,Private,6.76694,124.849999,valid,False,19,19088,1908806,1908806014
,Datu Mala Muslim Mindanao Islamic College Foundation,BARMM,BARMM,Lanao del Sur,Lanao del Sur,Marawi City,Marawi City,Private,8.0018209,124.2749633,valid,False,19,19036,1903617,1903617066
,De La Vida College,BARMM,BARMM,CITY OF COTABATO,CITY OF COTABATO,Cotabato City,Cotabato City,Private,7.2205263,124.2517949,valid,False,19,19087,1908703,1908703012
,Del Sur Good Shepherd College,BARMM,BARMM,Lanao Del Sur,Lanao Del Sur,Wao,Wao,Private,7.6447756,124.7265496,valid,False,19,19036,1903630,1903630012
,Dr. P. Ocampo Colleges,BARMM,BARMM,CITY OF COTABATO,CITY OF COTABATO,Cotabato City,Cotabato City,Private,7.2095055,124.2474109,valid,False,19,19087,1908703,1908703024
,Eastern Kutawato College,BARMM,BARMM,Maguindanao,Maguindanao,Buluan,Buluan,Private,6.7161898,124.7923736,valid,False,19,19088,1908802,1908802004
,Enthusiastic College,BARMM,BARMM,Maguindanao,Maguindanao,Buldon,Buldon,Private,7.3728193,124.4087307,valid,False,19,19087,1908702,1908702005
,Gani L. Abpi College,BARMM,BARMM,Maguindanao,Maguindanao,Datu Piang,Datu Piang,Private,7.0254773,124.4964046,valid,False,19,19088,1908807,1908807005
,General Diamongun K. Mangondato College of Agriculture and Fisheries,BARMM,BARMM,Lanao del Sur,Lanao del Sur,Masiu,Masiu,Private,7.8048488,124.3141282,valid,False,19,19036,1903618,1903618090
,Hadji Butu School of Arts and Trades,BARMM,BARMM,Sulu,Sulu,JOLO (Capital),JOLO (Capital),OGS,5.9691815,121.1252135,valid,False,09,09066,0906613,0906613059
,Hadji Datu Saidona Pendatun Foundation College,BARMM,BARMM,Maguindanao,Maguindanao,GEN. S. K. PENDATUN,GEN. S. K. PENDATUN,Private,6.8259873,124.7529437,valid,False,19,19088,1908811,1908811001
,Hardam Furigay Colleges Foundation,BARMM,BARMM,Basilan,Basilan,Lamitan City,Lamitan City,Private,6.6557471,122.1344419,valid,False,19,19007,1900702,1900702068
,Headstart College of Cotabato,BARMM,BARMM,CITY OF COTABATO,CITY OF COTABATO,Cotabato City,Cotabato City,Private,7.1823052,124.2242221,valid,False,19,19087,1908703,1908703032
,Illana Bay Integrated Computer College,BARMM,BARMM,Maguindanao,Maguindanao,Parang,Parang,Private,7.3752172,124.2655467,valid,False,19,19087,1908709,1908709020
,Iqra Development Academy,BARMM,BARMM,Lanao del Sur,Lanao del Sur,Tamparan,Tamparan,Private,7.8725206,124.3365882,valid,False,19,19036,1903626,1903626050
,Iranun Foundation College,BARMM,BARMM,Lanao del Sur,Lanao del Sur,Kapatagan,Kapatagan,Private,7.4657737,124.1865669,valid,False,19,19036,1903639,1903639003
,Jamiat Cotabato and Institute of Technology,BARMM,BARMM,CITY OF COTABATO,CITY OF COTABATO,Cotabato City,Cotabato City,Private,7.186547,124.2244311,valid,False,19,19087,1908703,1908703032
,Jamiatu Dansalan Al-Islamia Foundation,BARMM,BARMM,Lanao del Sur,Lanao del Sur,Marawi City,Marawi City,Private,8.0077394,124.289408,valid,False,19,19036,1903617,1903617090
,Jamiatu Marawi Al-Islamia Foundation,BARMM,BARMM,Lanao Del Sur,Lanao Del Sur,Marawi City,Marawi City,Private,8.0115593,124.2849917,valid,False,19,19036,1903617,1903617072
,Jamiatu Muslim Mindanao,BARMM,BARMM,Lanao Del Sur,Lanao Del Sur,Marawi City,Marawi City,Private,8.0115593,124.2849917,valid,False,19,19036,1903617,1903617072
,Jamiatul Philippine Al-Islamia,BARMM,BARMM,Lanao Del Sur,Lanao Del Sur,Marawi City,Marawi City,Private,8.000129,124.2831667,valid,False,19,19036,1903617,1903617009
,Khadijah Mohammad Islamic Academy,BARMM,BARMM,Lanao Del Sur,Lanao Del Sur,Marawi City,Marawi City,Private,8.0042836,124.2808337,valid,False,19,19036,1903617,1903617141
,Kutawato Darrusalam College,BARMM,BARMM,CITY OF COTABATO,CITY OF COTABATO,Cotabato City,Cotabato City,Private,7.2105459,124.2440172,valid,False,19,19087,1908703,1908703018
,Lake Lanao College,BARMM,BARMM,Lanao Del Sur,Lanao Del Sur,Marawi City,Marawi City,Private,8.0106213,124.297718,valid,False,19,19036,1903617,1903617058
,Lamitan Technical Institute,BARMM,BARMM,Basilan,Basilan,Lamitan City,Lamitan City,Private,6.6574218,122.1405649,valid,False,19,19007,1900702,1900702064
,Lanao Agricultural College,BARMM,BARMM,Lanao Del Sur,Lanao Del Sur,Lumbatan,Lumbatan,OGS,7.7844405,124.2552032,valid,False,19,19036,1903612,1903612043
,Lanao Central College,BARMM,BARMM,Lanao Del Sur,Lanao Del Sur,Marawi City,Marawi City,Private,8.0050364,124.2806496,valid,False,19,19036,1903617,1903617141
,Lanao Educational Institute,BARMM,BARMM,Lanao Del Sur,Lanao Del Sur,Malabang,Malabang,Private,7.593436,124.0720242,valid,False,19,19036,1903615,1903615020
,Lanao Islamic Paramedical College Foundation,BARMM,BARMM,Lanao Del Sur,Lanao Del Sur,Marawi City,Marawi City,Private,8.0126954,124.280025,valid,False,19,19036,1903617,1903617072
,Lapak Agricultural School,BARMM,BARMM,Sulu,Sulu,Siasi,Siasi,OGS,5.5451412,120.8227386,valid,False,09,09066,0906612,0906612009
,Mahardika Institute of Technology,BARMM,BARMM,Tawi-Tawi,Tawi-Tawi,Bongao,Bongao,Private,5.1041799,119.8119965,valid,False,,,,
,Mapandi Memorial College,BARMM,BARMM,Lanao Del Sur,Lanao Del Sur,Marawi City,Marawi City,Private,8.007333,124.2918556,valid,False,19,19036,1903617,1903617058
,Maranao Islamic Institute - Ma'Had Maranao Al-Islamie,BARMM,BARMM,Lanao del Sur,Lanao del Sur,Tamparan,Tamparan,Private,7.8689757,124.3339642,valid,False,19,19036,1903626,1903626050
,Marawi Capitol College Foundation,BARMM,BARMM,Lanao Del Sur,Lanao Del Sur,Marawi City,Marawi City,Private,7.917188,124.207549,valid,False,19,19036,1903603,1903603056
,Marawi Islamic College,BARMM,BARMM,Lanao Del Sur,Lanao Del Sur,Marawi City,Marawi City,Private,8.0126954,124.280025,valid,False,19,19036,1903617,1903617072
,Mariam School of Nursing,BARMM,BARMM,Basilan,Basilan,Lamitan City,Lamitan City,Private,6.66152,122.1060028,valid,False,19,19007,1900702,1900702050
,Masiricampo Abantas Memorial Educational Center,BARMM,BARMM,Lanao Del Sur,Lanao Del Sur,Marawi City,Marawi City,Private,8.0034179,124.2791398,valid,False,19,19036,1903617,1903617141
,Mindanao Autonomous College Foundation,BARMM,BARMM,Basilan,Basilan,Lamitan City,Lamitan City,Private,6.66152,122.106003,valid,False,19,19007,1900702,1900702050
,Mindanao Autonomous College Foundation-Maluso,BARMM,BARMM,Basilan,Basilan,Maluso,Maluso,Private,6.5398734,121.877966,valid,False,19,19007,1900704,1900704013
,Mindanao Capitol College,BARMM,BARMM,CITY OF COTABATO,CITY OF COTABATO,Cotabato City,Cotabato City,Private,7.2257479,124.2462921,valid,False,19,19087,1908703,1908703015
,Mindanao Institute of Healthcare Professionals,BARMM,BARMM,Lanao Del Sur,Lanao Del Sur,Marawi City,Marawi City,Private,8.0033753,124.2843708,valid,False,19,19036,1903617,1903617048
,Mindanao Islamic Computer College,BARMM,BARMM,Lanao Del Sur,Lanao Del Sur,Marawi City,Marawi City,Private,8.0177913,124.2748825,valid,False,19,19036,1903617,1903617013
,Mindanao State University-Lanao National College of Arts and Trades,BARMM,BARMM,Lanao Del Sur,Lanao Del Sur,Marawi City,Marawi City,Public SUC Satellite,8.0061417,124.2906635,valid,False,19,19036,1903617,1903617090
,Mindanao State University-Maguindanao,BARMM,BARMM,Maguindanao,Maguindanao,DATU ODIN SINSUAT,DATU ODIN SINSUAT,Public SUC Satellite,7.0147241,124.3220143,valid,False,19,19087,1908705,1908705012
,Mindanao State University-Main Campus Marawi City,BARMM,BARMM,Lanao Del Sur,Lanao Del Sur,Marawi City,Marawi City,Public SUC Main,7.9976116,124.2618724,valid,False,19,19036,1903617,1903617039
,Mindanao State University-Sulu Development Technical College,BARMM,BARMM,Sulu,Sulu,JOLO (Capital),JOLO (Capital),Public SUC Satellite,6.0471219,121.0155181,valid,False,09,09066,0906611,0906611014
,Mindanao State University-Tawi-Tawi College of Technology and Oceanography,BARMM,BARMM,Tawi-Tawi,Tawi-Tawi,Bongao,Bongao,Public SUC Satellite,5.0386419,119.7437846,valid,False,19,19070,1907002,1907002030
,Mindanaoan Integrated Academy,BARMM,BARMM,Lanao del Sur,Lanao del Sur,Wao,Wao,Private,7.6172999,124.7215828,valid,False,19,19036,1903630,1903630007
,Muslim Mindanao Integrated College Academy,BARMM,BARMM,Lanao del Sur,Lanao del Sur,Marawi City,Marawi City,Private,7.9995751,124.2844476,valid,False,19,19036,1903617,1903617045
,Notre Dame Center For Catechesis,BARMM,BARMM,CITY OF COTABATO,CITY OF COTABATO,Cotabato City,Cotabato City,Private,7.217596,124.245812,valid,False,19,19087,1908703,1908703022
,Notre Dame Hospital and School of Midwifery,BARMM,BARMM,CITY OF COTABATO,CITY OF COTABATO,Cotabato City,Cotabato City,Private,7.1980929,124.2376807,valid,False,19,19087,1908703,1908703023
,Notre Dame RVM College of Cotabato,BARMM,BARMM,CITY OF COTABATO,CITY OF COTABATO,Cotabato City,Cotabato City,Private,7.2144627,124.2438659,valid,False,19,19087,1908703,1908703031
,Notre Dame University,BARMM,BARMM,CITY OF COTABATO,CITY OF COTABATO,Cotabato City,Cotabato City,Private,7.2151947,124.2496814,valid,False,19,19087,1908703,1908703021
,Notre Dame of Jolo College,BARMM,BARMM,Sulu,Sulu,JOLO (Capital),JOLO (Capital),Private,6.0547569,121.0050627,valid,False,09,09066,0906602,0906602003
,Pacasum College,BARMM,BARMM,Lanao Del Sur,Lanao Del Sur,Marawi City,Marawi City,Private,7.999128,124.2911,valid,False,19,19036,1903617,1903617062
,Parang Foundation College,BARMM,BARMM,Maguindanao,Maguindanao,Parang,Parang,Private,7.333333,124.316667,valid,False,19,19087,1908709,1908709007
,Philippine Engineering and Agro-Industrial College,BARMM,BARMM,Lanao Del Sur,Lanao Del Sur,Marawi City,Marawi City,Private,8.0046369,124.2564348,valid,False,19,19036,1903617,1903617025
,Philippine Last Frontier College,BARMM,BARMM,Tawi-Tawi,Tawi-Tawi,Bongao,Bongao,Private,5.1041783,119.8120795,valid,False,,,,
,Philippine Muslim Teachers' College,BARMM,BARMM,Lanao Del Sur,Lanao Del Sur,Marawi City,Marawi City,Private,8.00179,124.282733,valid,False,19,19036,1903617,1903617048
,RC-Al Khwarizmi International College Foundation,BARMM,BARMM,Lanao Del Sur,Lanao Del Sur,Marawi City,Marawi City,Private,8.001377,124.2712012,valid,False,19,19036,1903617,1903617066
,Regional Madrasah Graduate Academy,BARMM,BARMM,Maguindanao,Maguindanao,Buluan,Buluan,OGS,6.8666701,124.75,valid,False,19,19088,1908811,1908811001
,SAL Foundation College,BARMM,BARMM,Maguindanao,Maguindanao,Parang,Parang,Private,7.3863555,124.2604628,valid,False,19,19087,1908709,1908709014
,SPA College,BARMM,BARMM,Maguindanao,Maguindanao,Datu Piang,Datu Piang,Private,7.03333,124.5,valid,False,19,19999,1999904,1999904006
,STI College-Cotabato,BARMM,BARMM,CITY OF COTABATO,CITY OF COTABATO,Cotabato City,Cotabato City,Private,7.2257957,124.2466317,valid,False,19,19087,1908703,1908703015
,Saffrullah M. Dipatuan Foundation Academy,BARMM,BARMM,Lanao Del Sur,Lanao Del Sur,Marawi City,Marawi City,Private,7.99826,124.2809982,valid,False,19,19036,1903617,1903617079
,Senator Ninoy Aquino College Foundation-Marawi,BARMM,BARMM,Lanao Del Sur,Lanao Del Sur,Marawi City,Marawi City,Private,8.0057884,124.3163357,valid,False,19,19036,1903617,1903617052
,Shariff Kabunsuan College,BARMM,BARMM,CITY OF COTABATO,CITY OF COTABATO,Cotabato City,Cotabato City,Private,7.2218289,124.2343641,valid,False,19,19087,1908703,1908703002
,Shariff Kabunsuan College (Annex),BARMM,BARMM,Maguindanao,Maguindanao,Parang,Parang,Private,7.333333,124.316667,valid,False,19,19087,1908709,1908709007
,South Upi College,BARMM,BARMM,Maguindanao,Maguindanao,South Upi,South Upi,Private,6.8510318,124.1976882,valid,False,19,19088,1908822,1908822010
,Southwestern Mindanao Islamic Institute,BARMM,BARMM,Sulu,Sulu,JOLO (Capital),JOLO (Capital),Private,6.052749,120.9991182,valid,False,09,09066,0906602,0906602010
,St. Benedict College of Cotabato,BARMM,BARMM,CITY OF COTABATO,CITY OF COTABATO,Cotabato City,Cotabato City,Private,7.1961639,124.243518,valid,False,19,19087,1908703,1908703023
,St. Benedict College of Maguindanao,BARMM,BARMM,Maguindanao,Maguindanao,Parang,Parang,Private,7.3331287,124.2310439,valid,False,19,19087,1908709,1908709010
,Sultan Kudarat Islamic Academy Foundation College,BARMM,BARMM,Maguindanao,Maguindanao,SULTAN KUDARAT (NULING),SULTAN KUDARAT (NULING),Private,7.2319424,124.252471,valid,False,19,19087,1908710,1908710006
,Sulu College of Technology,BARMM,BARMM,Sulu,Sulu,Indanan,Indanan,Private,6.0495114,120.9976338,valid,False,09,09066,0906602,0906602009
,Sulu State College,BARMM,BARMM,Sulu,Sulu,JOLO (Capital),JOLO (Capital),Public SUC Main,6.0508818,121.0128942,valid,False,09,09066,0906611,0906611014
,Tamparan Populace Islamic College,BARMM,BARMM,Lanao del Sur,Lanao del Sur,Tamparan,Tamparan,Private,7.8725206,124.3365882,valid,False,19,19036,1903626,1903626050
,Tawi-Tawi Regional Agricultural College,BARMM,BARMM,Tawi-Tawi,Tawi-Tawi,Bongao,Bongao,Public SUC Main,5.0250618,119.7603174,valid,False,19,19070,1907002,1907002045
,Tawi-Tawi Regional Agricultural College - Languyan,BARMM,BARMM,Tawi-Tawi,Tawi-Tawi,Languyan,Languyan,Public SUC Satellite,5.104153,119.81202,valid,False,,,,
,Tawi-Tawi Regional Agricultural College - Sibutu,BARMM,BARMM,Tawi-Tawi,Tawi-Tawi,Sibutu,Sibutu,Public SUC Satellite,4.7814149,119.4759634,valid,False,19,19070,1907011,1907011008
,Tawi-Tawi Regional Agricultural College - Tarawakan,BARMM,BARMM,Tawi-Tawi,Tawi-Tawi,Bongao,Bongao,Public SUC Satellite,5.0250618,119.7603174,valid,False,19,19070,1907002,1907002045
,Tawi-Tawi Regional Agricultural College-Simunul,BARMM,BARMM,Tawi-Tawi,Tawi-Tawi,Simunul,Simunul,Public SUC Satellite,5.0250618,119.7603174,valid,False,19,19070,1907002,1907002045
,Tawi-Tawi School of Midwifery,BARMM,BARMM,Tawi-Tawi,Tawi-Tawi,Bongao,Bongao,Private,5.031389,119.773374,valid,False,19,19070,1907002,1907002027
,Unda Memorial National Agricultural School,BARMM,BARMM,Lanao Del Sur,Lanao Del Sur,Masiu,Masiu,OGS,7.8166667,124.3166667,valid,False,19,19036,1903618,1903618003
,Universal College Foundation of Southeast Asia and the Pacific,BARMM,BARMM,Basilan,Basilan,Lamitan City,Lamitan City,Private,6.661519,122.1064668,valid,False,19,19007,1900702,1900702050
15059,University of Southern Mindanao - Buluan,BARMM,BARMM,Maguindanao,Maguindanao,Buluan,Buluan,Public SUC Satellite,6.7432665,124.8016945,valid,False,19,19088,1908818,1908818001
,Upi Agricultural School-Provincial Technical Institute of Agriculture,BARMM,BARMM,Maguindanao,Maguindanao,Upi,Upi,OGS,6.8333302,124.1500015,valid,False,19,19088,1908822,1908822010
,Wisdom International School for Higher Education Studies,BARMM,BARMM,Lanao Del Sur,Lanao Del Sur,Marawi City,Marawi City,Private,8.0026949,124.291901,valid,False,19,19036,1903617,1903617124
14040,AMA Computer College-Baguio,CAR,CAR,Benguet,Benguet,Baguio City,Baguio City,Private,16.4227181,120.5926182,valid,False,14,14303,1430300,1430300065
,Abra State Institute of Science and Technology-Bangued,CAR,CAR,Abra,Abra,BANGUED (Capital),BANGUED (Capital),Public SUC Satellite,17.5881996,120.6309967,valid,False,14,14001,1400101,1400101002
,Abra State Institute of Science and Technology-Main,CAR,CAR,Abra,Abra,Lagangilang,Lagangilang,Public SUC Main,17.6090194,120.7380484,valid,False,14,14001,1400110,1400110013
14003,Abra Valley Colleges,CAR,CAR,Abra,Abra,BANGUED (Capital),BANGUED (Capital),Private,17.596565,120.6170749,valid,False,14,14001,1400101,1400101027
14031,Apayao State College-Luna,CAR,CAR,Apayao,Apayao,Luna,Luna,Public SUC Satellite,18.3323408,121.3783732,valid,False,14,14081,1408105,1408105021
14004,Apayao State College-Main,CAR,CAR,Apayao,Apayao,Conner,Conner,Public SUC Main,17.8087364,121.2946177,valid,False,14,14081,1408102,1408102010
14053,BSBT College,CAR,CAR,Benguet,Benguet,Baguio City,Baguio City,Private,16.4299294,120.5966187,valid,False,14,14303,1430300,1430300139
14037,BVS College,CAR,CAR,Benguet,Benguet,LA TRINIDAD (Capital),LA TRINIDAD (Capital),Private,16.4484432,120.5902787,valid,False,14,14011,1401110,1401110011
14005,Baguio Central University,CAR,CAR,Benguet,Benguet,Baguio City,Baguio City,Private,16.4174682,120.5965085,valid,False,14,14303,1430300,1430300125
14036,Baguio College of Technology,CAR,CAR,Benguet,Benguet,Baguio City,Baguio City,Private,16.4123024,120.5961947,valid,False,14,14303,1430300,1430300140
14007,Benguet State University-Bokod Campus,CAR,CAR,Benguet,Benguet,Bokod,Bokod,Public SUC Satellite,16.5197621,120.8317132,valid,False,14,14011,1401104,1401104004
14009,Benguet State University-Buguias Campus,CAR,CAR,Benguet,Benguet,Buguias,Buguias,Public SUC Satellite,16.7491571,120.8368171,valid,False,14,14011,1401105,1401105014
14008,Benguet State University-Main,CAR,CAR,Benguet,Benguet,LA TRINIDAD (Capital),LA TRINIDAD (Capital),Public SUC Main,16.4543609,120.5902746,valid,False,14,14011,1401110,1401110005
14008a,Benguet State University-Open University,CAR,CAR,Benguet,Benguet,LA TRINIDAD (Capital),LA TRINIDAD (Capital),Public SUC Satellite,16.4496134,120.5907494,valid,False,14,14011,1401110,1401110005
14024,Casiciaco Recoletos Seminary,CAR,CAR,Benguet,Benguet,Baguio City,Baguio City,Private,16.4122336,120.5792926,valid,False,14,14303,1430300,1430300098
14039,Cordillera A+ Computer Technology College,CAR,CAR,Kalinga,Kalinga,Tabuk City,Tabuk City,Private,17.4064007,121.3199997,valid,False,14,14032,1403213,1403213020
14010,Cordillera Career Development College,CAR,CAR,Benguet,Benguet,LA TRINIDAD (Capital),LA TRINIDAD (Capital),Private,16.456952,120.5773682,valid,False,14,14011,1401110,1401110012
14045,Data Center College of the Philippines of Baguio City,CAR,CAR,Benguet,Benguet,Baguio City,Baguio City,Private,16.4152244,120.5994743,valid,False,14,14303,1430300,1430300047
14042,Data Center College of the Philippines of Bangued-Abra,CAR,CAR,Abra,Abra,BANGUED (Capital),BANGUED (Capital),Private,17.5881996,120.6309967,valid,False,14,14001,1400101,1400101002
14011,Divine Word College of Bangued,CAR,CAR,Abra,Abra,BANGUED (Capital),BANGUED (Capital),Private,17.59447,120.6162154,valid,False,14,14001,1400101,1400101029
14028,Easter College,CAR,CAR,Benguet,Benguet,Baguio City,Baguio City,Private,16.4235296,120.5869695,valid,False,14,14303,1430300,1430300042
14012,Ifugao State University - Lagawe Campus,CAR,CAR,Ifugao,Ifugao,LAGAWE (Capital),LAGAWE (Capital),Public SUC Satellite,16.8004907,121.1136556,valid,False,14,14027,1402704,1402704028
14013,Ifugao State University - Main,CAR,CAR,Ifugao,Ifugao,Lamut,Lamut,Public SUC Main,16.7176413,121.172558,valid,False,14,14027,1402705,1402705009
14014,Ifugao State University - Potia,CAR,CAR,Ifugao,Ifugao,Alfonso Lista,Alfonso Lista,Public SUC Satellite,16.8843064,121.4667342,valid,False,14,14027,1402707,1402707011
14034,Ifugao State University - Tinoc,CAR,CAR,Ifugao,Ifugao,Tinoc,Tinoc,Public SUC Satellite,16.6826831,120.9324839,valid,False,14,14027,1402710,1402710007
14066,Ifugao State University-Aguinaldo,CAR,CAR,Ifugao,Ifugao,Aguinaldo,Aguinaldo,Public SUC Satellite,16.7176413,121.172558,valid,False,14,14027,1402705,1402705009
14065,Ifugao State University-Hapao,CAR,CAR,Ifugao,Ifugao,Hungduan,Hungduan,Public SUC Satellite,16.8260318,120.9886427,valid,False,14,14027,1402702,1402702011
02061,International School of Asia and the Pacific,CAR,CAR,Kalinga,Kalinga,Tabuk City,Tabuk City,Private,17.4255182,121.4775812,valid,True,14,14032,1403213,1403213042
14043,Kalinga Colleges of Science and Technology,CAR,CAR,Kalinga,Kalinga,Tabuk City,Tabuk City,Private,17.4125188,121.440827,valid,False,14,14032,1403213,1403213008
14029,Kalinga State University-Dagupan,CAR,CAR,Kalinga,Kalinga,Tabuk City,Tabuk City,Public SUC Satellite,17.4708028,121.4651697,valid,False,14,14032,1403213,1403213037
14015,Kalinga State University-Main,CAR,CAR,Kalinga,Kalinga,Tabuk City,Tabuk City,Public SUC Main,17.4022858,121.4377469,valid,False,14,14032,1403213,1403213008
14058,Kalinga State University-Rizal,CAR,CAR,Kalinga,Kalinga,Rizal,Rizal,Public SUC Satellite,17.5427965,121.5762034,valid,False,14,14032,1403211,1403211016
14032,Keystone College,CAR,CAR,Benguet,Benguet,Baguio City,Baguio City,Private,16.4015388,120.5942429,valid,False,14,14303,1430300,1430300131
14050,King's College of the Philippines-Benguet,CAR,CAR,Benguet,Benguet,LA TRINIDAD (Capital),LA TRINIDAD (Capital),Private,16.4452765,120.5881071,valid,False,14,14011,1401110,1401110011
14017,Mountain Province State University-Main,CAR,CAR,MOUNTAIN PROVINCE,Mt. Province,Bontoc,Bontoc,Public SUC Main,17.091256,121.0105733,valid,False,14,14044,1404404,1404404006
14019,Mountain Province State University-Tadian,CAR,CAR,MOUNTAIN PROVINCE,Mt. Province,Tadian,Tadian,Public SUC Satellite,16.9660794,120.8154358,valid,False,14,14044,1404410,1404410019
14063,Philippine College of Ministry,CAR,CAR,Benguet,Benguet,LA TRINIDAD (Capital),LA TRINIDAD (Capital),Private,16.4423696,120.5532483,valid,False,14,14011,1401110,1401110013
,Philippine Military Academy,CAR,CAR,Benguet,Benguet,Baguio City,Baguio City,OGS,16.360888,120.619414,valid,False,14,14303,1430300,1430300037
14016,Philippine Nazarene College,CAR,CAR,Benguet,Benguet,LA TRINIDAD (Capital),LA TRINIDAD (Capital),Private,16.4439597,120.5796457,valid,False,14,14011,1401110,1401110011
14020,Pines City Colleges,CAR,CAR,Benguet,Benguet,Baguio City,Baguio City,Private,16.4260293,120.5946832,valid,False,14,14303,1430300,1430300139
14059,Remnant International College,CAR,CAR,Benguet,Benguet,Baguio City,Baguio City,Private,16.3890725,120.5994514,valid,False,14,14303,1430300,1430300017
,STI College-Baguio,CAR,CAR,Benguet,Benguet,Baguio City,Baguio City,Private,16.4210626,120.5971987,valid,False,14,14303,1430300,1430300076
14021,Saint Louis College of Bulanao,CAR,CAR,Kalinga,Kalinga,Tabuk City,Tabuk City,Private,17.4109068,121.4456784,valid,False,14,14032,1403213,1403213008
14022,Saint Louis University,CAR,CAR,Benguet,Benguet,Baguio City,Baguio City,Private,16.4190055,120.5971225,valid,False,14,14303,1430300,1430300125
14051,Saint Tonis College,CAR,CAR,Kalinga,Kalinga,Tabuk City,Tabuk City,Private,17.4116402,121.4421982,valid,False,14,14032,1403213,1403213008
14023,San Pablo Major Seminary,CAR,CAR,Benguet,Benguet,Baguio City,Baguio City,Private,16.3981725,120.5774794,valid,False,14,14303,1430300,1430300004
14068,Star College,CAR,CAR,Benguet,Benguet,LA TRINIDAD (Capital),LA TRINIDAD (Capital),Private,16.446593,120.58775,valid,False,14,14011,1401110,1401110011
14067,Theological Foundation for Asia (Asia Pacific Theological Seminary),CAR,CAR,Benguet,Benguet,Baguio City,Baguio City,Private,16.4283492,120.6230187,valid,False,14,14303,1430300,1430300072
14026,University of Baguio,CAR,CAR,Benguet,Benguet,Baguio City,Baguio City,Private,16.415128,120.5974765,valid,False,14,14303,1430300,1430300039
14006,University of the Cordilleras,CAR,CAR,Benguet,Benguet,Baguio City,Baguio City,Private,16.40875,120.5978032,valid,False,14,14303,1430300,1430300106
,University of the Philippines-Baguio,CAR,CAR,Benguet,Benguet,Baguio City,Baguio City,Public SUC Satellite,16.4052448,120.5985918,valid,False,14,14303,1430300,1430300071
14054,Xijen College of Mt. Province,CAR,CAR,MOUNTAIN PROVINCE,Mt. Province,Bontoc,Bontoc,Private,17.093007,120.9769172,valid,False,14,14044,1404404,1404404017
16019,ACLC College of Butuan City,CARAGA,CARAGA,Agusan Del Norte,Agusan Del Norte,BUTUAN CITY (Capital),BUTUAN CITY (Capital),Private,8.943786,125.523082,valid,False,16,16304,1630400,1630400020
10004,Agusan Colleges,CARAGA,CARAGA,Agusan Del Norte,Agusan Del Norte,BUTUAN CITY (Capital),BUTUAN CITY (Capital),Private,8.9465867,125.5442454,valid,False,16,16304,1630400,1630400079
10006,Agusan Del Sur State College of Agriculture and Technology,CARAGA,CARAGA,Agusan Del Sur,Agusan Del Sur,Bunawan,Bunawan,Public SUC Main,8.1692546,126.0035237,valid,False,16,16003,1600302,1600302010
10005,Agusan del Sur College,CARAGA,CARAGA,Agusan Del Sur,Agusan Del Sur,Bayugan City,Bayugan City,Private,8.7154347,125.7449207,valid,False,16,16003,1600301,1600301016
11003,Andres Soriano Colleges of Bislig,CARAGA,CARAGA,Surigao Del Sur,Surigao Del Sur,Bislig City,Bislig City,Private,8.1838453,126.3582698,valid,False,16,16068,1606803,1606803009
10010,Asian College Foundation,CARAGA,CARAGA,Agusan Del Norte,Agusan Del Norte,BUTUAN CITY (Capital),BUTUAN CITY (Capital),Private,8.9432158,125.5182889,valid,False,16,16304,1630400,1630400054
16015,Balite Institute of Technology-Butuan,CARAGA,CARAGA,Agusan Del Norte,Agusan Del Norte,BUTUAN CITY (Capital),BUTUAN CITY (Capital),Private,8.9535628,125.5419664,valid,False,16,16304,1630400,1630400075
16018,Bucas Grande Foundation College,CARAGA,CARAGA,Surigao Del Norte,Surigao Del Norte,Socorro,Socorro,Private,9.6158903,125.9627328,valid,False,16,16067,1606723,1606723014
10015,Butuan City Colleges,CARAGA,CARAGA,Agusan Del Norte,Agusan Del Norte,BUTUAN CITY (Capital),BUTUAN CITY (Capital),Private,8.9484004,125.5405257,valid,False,16,16304,1630400,1630400085
10016,Butuan Doctors' College,CARAGA,CARAGA,Agusan Del Norte,Agusan Del Norte,BUTUAN CITY (Capital),BUTUAN CITY (Capital),Private,8.9438392,125.5217533,valid,False,16,16304,1630400,1630400020
16026,Candelaria Institute of Technology of Cabadbaran,CARAGA,CARAGA,Agusan del Norte,Agusan del Norte,Cabadbaran City,Cabadbaran City,Private,9.1234034,125.5315762,valid,False,16,16002,1600203,1600203021
16004,Caraga Institute of Technology,CARAGA,CARAGA,Agusan Del Norte,Agusan Del Norte,Kitcharao,Kitcharao,Private,9.458931,125.575825,valid,False,16,16002,1600206,1600206011
16032,Caraga School of Business,CARAGA,CARAGA,Agusan Del Sur,Agusan Del Sur,Bayugan City,Bayugan City,Private,8.7134852,125.7483168,valid,False,16,16003,1600301,1600301016
10058,Caraga State University-Cabadbaran Campus,CARAGA,CARAGA,Agusan Del Norte,Agusan Del Norte,Cabadbaran City,Cabadbaran City,Public SUC Satellite,9.1162924,125.5346602,valid,False,16,16002,1600203,1600203023
10060,Caraga State University-Main Campus,CARAGA,CARAGA,Agusan Del Norte,Agusan Del Norte,BUTUAN CITY (Capital),BUTUAN CITY (Capital),Public SUC Main,8.9585847,125.5957578,valid,False,16,16304,1630400,1630400007
16005,De La Salle John Bosco College,CARAGA,CARAGA,Surigao Del Sur,Surigao Del Sur,Bislig City,Bislig City,Private,8.1803301,126.3542111,valid,False,16,16068,1606803,1606803009
10026,Don Jose Ecleo Memorial Foundation College of Science and Technology,CARAGA,CARAGA,Dinagat Islands,Dinagat Islands,San Jose,San Jose,Private,10.0083333,125.5888889,valid,False,16,16085,1608506,1608506002
10027,Elisa R. Ochoa Memorial Northern Mindanao School of Midwifery,CARAGA,CARAGA,Agusan Del Norte,Agusan Del Norte,BUTUAN CITY (Capital),BUTUAN CITY (Capital),Private,8.9479651,125.5443714,valid,False,16,16304,1630400,1630400089
10090,Father Saturnino Urios University,CARAGA,CARAGA,Agusan Del Norte,Agusan Del Norte,BUTUAN CITY (Capital),BUTUAN CITY (Capital),Private,8.9479202,125.5420479,valid,False,16,16304,1630400,1630400078
16021,Hinatuan Southern College,CARAGA,CARAGA,Surigao Del Sur,Surigao Del Sur,Hinatuan,Hinatuan,Public LUC,8.3689348,126.3340213,valid,False,16,16068,1606809,1606809043
16012,Holy Child Colleges of Butuan City,CARAGA,CARAGA,Agusan Del Norte,Agusan Del Norte,BUTUAN CITY (Capital),BUTUAN CITY (Capital),Private,8.9415851,125.5378577,valid,False,16,16304,1630400,1630400045
16031,Merchant Marine Academy of Caraga,CARAGA,CARAGA,Agusan Del Norte,Agusan Del Norte,BUTUAN CITY (Capital),BUTUAN CITY (Capital),Private,8.955713,125.5410927,valid,False,16,16304,1630400,1630400071
16006,Mt. Carmel College of San Francisco,CARAGA,CARAGA,Agusan Del Sur,Agusan Del Sur,San Francisco,San Francisco,Private,8.5060472,125.9750506,valid,False,16,16003,1600308,1600308017
11071,North Eastern Mindanao State University-Cagwait,CARAGA,CARAGA,Surigao Del Sur,Surigao Del Sur,Cagwait,Cagwait,Public SUC Satellite,8.8936805,126.301635,valid,False,16,16068,1606804,1606804012
11083,North Eastern Mindanao State University-Cantilan,CARAGA,CARAGA,Surigao Del Sur,Surigao Del Sur,Cantilan,Cantilan,Public SUC Satellite,9.2828234,125.9421877,valid,False,16,16068,1606805,1606805014
11072,North Eastern Mindanao State University-Lianga,CARAGA,CARAGA,Surigao Del Sur,Surigao Del Sur,Lianga,Lianga,Public SUC Satellite,8.6339419,126.0936177,valid,False,16,16068,1606811,1606811010
11084,North Eastern Mindanao State University-Main,CARAGA,CARAGA,Surigao Del Sur,Surigao Del Sur,Tandag City,Tandag City,Public SUC Main,9.0394399,126.2160314,valid,False,16,16068,1606819,1606819015
11074,North Eastern Mindanao State University-San Miguel,CARAGA,CARAGA,Surigao Del Sur,Surigao Del Sur,San Miguel,San Miguel,Public SUC Satellite,8.9653061,125.9600723,valid,False,16,16068,1606816,1606816006
11073,North Eastern Mindanao State University-Tagbina,CARAGA,CARAGA,Surigao Del Sur,Surigao Del Sur,Tagbina,Tagbina,Public SUC Satellite,8.451115,126.1646754,valid,False,16,16068,1606817,1606817012
10094,Northeastern Mindanao Colleges,CARAGA,CARAGA,Surigao Del Norte,Surigao Del Norte,Surigao City,Surigao City,Private,9.78905,125.49317,valid,False,16,16067,1606724,1606724068
10057,Northern Mindanao Colleges,CARAGA,CARAGA,Agusan Del Norte,Agusan Del Norte,Cabadbaran City,Cabadbaran City,Private,9.1215678,125.5350879,valid,False,16,16002,1600203,1600203023
10062,Northwestern Agusan Colleges,CARAGA,CARAGA,Agusan Del Norte,Agusan Del Norte,Nasipit,Nasipit,Private,8.9793913,125.3498171,valid,False,16,16002,1600209,1600209016
16022,Philippine Electronics and Communication Institute of Technology,CARAGA,CARAGA,Agusan del Norte,Agusan del Norte,BUTUAN CITY (Capital),BUTUAN CITY (Capital),Private,8.9401946,125.5291209,valid,False,16,16304,1630400,1630400037
10068,Philippine Normal University-Mindanao Campus,CARAGA,CARAGA,Agusan Del Sur,Agusan Del Sur,PROSPERIDAD (Capital),PROSPERIDAD (Capital),Public SUC Satellite,8.6094272,125.911786,valid,False,16,16003,1600306,1600306004
16013,STI College-Surigao,CARAGA,CARAGA,Surigao Del Norte,Surigao Del Norte,Surigao City,Surigao City,Private,9.7882223,125.4936605,valid,False,16,16067,1606724,1606724068
10071,Saint Francis Xavier College,CARAGA,CARAGA,Agusan Del Sur,Agusan Del Sur,San Francisco,San Francisco,Private,8.5038614,125.9763918,valid,False,16,16003,1600308,1600308019
10073,Saint Joseph Institute of Technology,CARAGA,CARAGA,Agusan Del Norte,Agusan Del Norte,BUTUAN CITY (Capital),BUTUAN CITY (Capital),Private,8.951273,125.5411184,valid,False,16,16304,1630400,1630400053
16010,Saint Michael College of Caraga,CARAGA,CARAGA,Agusan Del Norte,Agusan Del Norte,Nasipit,Nasipit,Private,8.9882671,125.3404024,valid,False,16,16002,1600209,1600209013
11065,Saint Michael College-Cantilan,CARAGA,CARAGA,Surigao Del Sur,Surigao Del Sur,Cantilan,Cantilan,Private,9.3361507,125.9758405,valid,False,16,16068,1606805,1606805011
16017,Saint Peter College Seminary,CARAGA,CARAGA,Agusan Del Norte,Agusan Del Norte,BUTUAN CITY (Capital),BUTUAN CITY (Capital),Private,8.9601564,125.5910934,valid,False,16,16304,1630400,1630400007
11067,Saint Theresa College of Tandag,CARAGA,CARAGA,Surigao Del Sur,Surigao Del Sur,Tandag City,Tandag City,Private,9.0796797,126.1970437,valid,False,16,16068,1606819,1606819006
11068,Saint Vincent de Paul Diocesan College,CARAGA,CARAGA,Surigao Del Sur,Surigao Del Sur,Bislig City,Bislig City,Private,8.1848443,126.3497635,valid,False,16,16068,1606803,1606803009
10078,San Francisco Colleges,CARAGA,CARAGA,Agusan Del Sur,Agusan Del Sur,San Francisco,San Francisco,Private,8.5056752,125.9763153,valid,False,16,16003,1600308,1600308017
16003,Siargao Island Institute of Technology,CARAGA,CARAGA,Surigao Del Norte,Surigao Del Norte,Dapa,Dapa,Private,9.760829,126.047129,valid,False,16,16067,1606707,1606707016
11079,Southern Technological Institute of the Philippines,CARAGA,CARAGA,Surigao Del Sur,Surigao Del Sur,Bislig City,Bislig City,Private,8.1842639,126.3523353,valid,False,16,16068,1606803,1606803009
16011,Southway College of Technology,CARAGA,CARAGA,Agusan Del Sur,Agusan Del Sur,San Francisco,San Francisco,Private,8.5089765,125.9696657,valid,False,16,16003,1600308,1600308017
10074,St. Jude Thaddeus Institute of Technology,CARAGA,CARAGA,Surigao Del Norte,Surigao Del Norte,Surigao City,Surigao City,Private,9.786751,125.4983282,valid,False,16,16067,1606724,1606724048
10080,St. Paul University Surigao,CARAGA,CARAGA,Surigao Del Norte,Surigao Del Norte,Surigao City,Surigao City,Private,9.7896208,125.4934421,valid,False,16,16067,1606724,1606724068
16027,Surigao Doctors' College,CARAGA,CARAGA,Surigao del Norte,Surigao del Norte,Surigao City,Surigao City,Private,9.7911216,125.4928456,valid,False,16,16067,1606724,1606724068
10088,Surigao Education Center,CARAGA,CARAGA,Surigao Del Norte,Surigao Del Norte,Surigao City,Surigao City,Private,9.7799645,125.4844987,valid,False,16,16067,1606724,1606724068
10095,Surigao State College of Technology-Del Carmen,CARAGA,CARAGA,Surigao Del Norte,Surigao Del Norte,Del Carmen,Del Carmen,Public SUC Satellite,9.873859,125.9704174,valid,False,16,16067,1606708,1606708022
10087,Surigao State College of Technology-Main,CARAGA,CARAGA,Surigao Del Norte,Surigao Del Norte,Surigao City,Surigao City,Public SUC Main,9.7873599,125.494424,valid,False,16,16067,1606724,1606724068
16028,Surigao State College of Technology-Mainit,CARAGA,CARAGA,Surigao del Norte,Surigao del Norte,Mainit,Mainit,Public SUC Satellite,9.7873599,125.494424,valid,False,16,16067,1606724,1606724068
16009,Surigao State College of Technology-Malimono,CARAGA,CARAGA,Surigao Del Norte,Surigao Del Norte,Malimono,Malimono,Public SUC Satellite,9.57498,125.422997,valid,False,16,16067,1606715,1606715009
11082,Surigao Sur Colleges,CARAGA,CARAGA,Surigao Del Sur,Surigao Del Sur,Barobo,Barobo,Private,8.5407135,126.1126768,valid,False,16,16068,1606801,1606801015
11099a,University of Southeastern Philippines-Bislig Campus,CARAGA,CARAGA,Surigao Del Sur,Surigao Del Sur,Bislig City,Bislig City,Public SUC Satellite,8.21006,126.285004,valid,False,16,16068,1606803,1606803006
17007,ACLC College of Calapan,MIMAROPA,Region 04-B,Oriental Mindoro,Oriental Mindoro,Calapan City,Calapan City,Private,13.3782067,121.1704956,valid,False,17,17052,1705205,1705205056
04001,Abada College,MIMAROPA,Region 04-B,Oriental Mindoro,Oriental Mindoro,Pinamalayan,Pinamalayan,Private,13.0404338,121.4784545,valid,False,17,17052,1705209,1705209015
04283,Ark of the Covenant Montessori Chamber of Learning College,MIMAROPA,Region 04-B,Oriental Mindoro,Oriental Mindoro,Victoria,Victoria,Private,12.6730003,121.3539963,valid,False,17,17052,1705203,1705203901
17018,Baco Community College,MIMAROPA,Region 04-B,Oriental Mindoro,Oriental Mindoro,Baco,Baco,Public LUC,13.3592391,121.0962813,valid,False,17,17052,1705201,1705201029
,CLCC Institute of Computer Arts & Technology,MIMAROPA,Region 04-B,Oriental Mindoro,Oriental Mindoro,Calapan City,Calapan City,Private,13.402932,121.1721235,valid,False,17,17052,1705205,1705205028
17010,City College of Calapan,MIMAROPA,Region 04-B,Oriental Mindoro,Oriental Mindoro,Calapan City,Calapan City,Public LUC,13.3792181,121.1843109,valid,False,17,17052,1705205,1705205021
04266,Clarendon College,MIMAROPA,Region 04-B,Oriental Mindoro,Oriental Mindoro,Roxas,Roxas,Private,12.5942819,121.5093201,valid,False,17,17052,1705212,1705212009
04016,Colegio De San Sebastian-Sablayan,MIMAROPA,Region 04-B,Occidental Mindoro,Occidental Mindoro,Sablayan,Sablayan,Private,12.8392489,120.7721694,valid,False,17,17051,1705109,1705109002
04021,Divine Word College of Calapan,MIMAROPA,Region 04-B,Oriental Mindoro,Oriental Mindoro,Calapan City,Calapan City,Private,13.4107809,121.175692,valid,False,17,17052,1705205,1705205061
04022,Divine Word College of San Jose,MIMAROPA,Region 04-B,Occidental Mindoro,Occidental Mindoro,San Jose,San Jose,Private,12.3529375,121.0699375,valid,False,17,17051,1705110,1705110012
04030,EMA EMITS College Philippines,MIMAROPA,Region 04-B,Oriental Mindoro,Oriental Mindoro,Pinamalayan,Pinamalayan,Private,13.0363616,121.4899063,valid,False,17,17052,1705209,1705209024
04029,Eastern Mindoro College,MIMAROPA,Region 04-B,Oriental Mindoro,Oriental Mindoro,Bongabong,Bongabong,Private,12.749915,121.4843,valid,False,17,17052,1705203,1705203035
04140,Educational Systems Technological Institute,MIMAROPA,Region 04-B,Marinduque,Marinduque,Boac,Boac,Private,13.448203,121.8361192,valid,False,17,17040,1704001,1704001040
17019,Erhard Science and Technological Institute-Oriental Mindoro,MIMAROPA,Region 04-B,Oriental Mindoro,Oriental Mindoro,Gloria,Gloria,Private,12.9684298,121.4877993,valid,False,17,17052,1705206,1705206028
17003,Erhard Systems Technological Institute,MIMAROPA,Region 04-B,Romblon,Romblon,Odiongan,Odiongan,Private,12.4025801,121.9803791,valid,False,17,17059,1705909,1705909026
04168,Fullbright College,MIMAROPA,Region 04-B,Palawan,Palawan,Puerto Princesa City,Puerto Princesa City,Private,9.7858707,118.7490417,valid,False,17,17315,1731500,1731500046
04034,Grace Mission College,MIMAROPA,Region 04-B,Oriental Mindoro,Oriental Mindoro,Socorro,Socorro,Private,13.0622,121.331001,valid,False,17,17052,1705214,1705214017
04037,Holy Trinity University,MIMAROPA,Region 04-B,Palawan,Palawan,Puerto Princesa City,Puerto Princesa City,Private,9.7414252,118.7326539,valid,False,17,17315,1731500,1731500025
04331b,Innovative College of Science and Technology,MIMAROPA,Region 04-B,Oriental Mindoro,Oriental Mindoro,Bongabong,Bongabong,Private,12.7563168,121.4726036,valid,False,17,17052,1705203,1705203017
17004,Institute of Business Science and Medical Arts,MIMAROPA,Region 04-B,Oriental Mindoro,Oriental Mindoro,Pinamalayan,Pinamalayan,Private,13.0366337,121.4825572,valid,False,17,17052,1705209,1705209015
04202,John Paul College,MIMAROPA,Region 04-B,Oriental Mindoro,Oriental Mindoro,Roxas,Roxas,Private,12.5961005,121.4990955,valid,False,17,17052,1705212,1705212009
04053,Luna Goco Colleges-Calapan,MIMAROPA,Region 04-B,Oriental Mindoro,Oriental Mindoro,Calapan City,Calapan City,Private,13.4000435,121.1703989,valid,False,17,17052,1705205,1705205028
17020,Malindig Institute Foundation,MIMAROPA,Region 04-B,Marinduque,Marinduque,SANTA CRUZ,SANTA CRUZ,Private,13.4779627,122.0317556,valid,False,17,17040,1704005,1704005030
04174,Marinduque Midwest College,MIMAROPA,Region 04-B,Marinduque,Marinduque,Gasan,Gasan,Private,13.3298386,121.844925,valid,False,17,17040,1704003,1704003013
04203,Marinduque State University-Gasan Campus,MIMAROPA,Region 04-B,Marinduque,Marinduque,Gasan,Gasan,Public SUC Satellite,13.4536229,121.8444564,valid,False,17,17040,1704001,1704001057
04058,Marinduque State University-Main Campus,MIMAROPA,Region 04-B,Marinduque,Marinduque,Boac,Boac,Public SUC Main,13.4536229,121.8444564,valid,False,17,17040,1704001,1704001057
04204,Marinduque State University-Sta. Cruz Campus,MIMAROPA,Region 04-B,Marinduque,Marinduque,SANTA CRUZ,SANTA CRUZ,Public SUC Satellite,13.4536229,121.8444564,valid,False,17,17040,1704001,1704001057
04063,Marinduque State University-Torrijos Campus,MIMAROPA,Region 04-B,Marinduque,Marinduque,Torrijos,Torrijos,Public SUC Satellite,13.3343452,122.0155491,valid,False,17,17040,1704006,1704006022
04273,Mina de Oro Institute of Science and Technology,MIMAROPA,Region 04-B,Oriental Mindoro,Oriental Mindoro,Victoria,Victoria,Private,13.1832612,121.2761074,valid,False,17,17052,1705215,1705215021
04178,Mindoro State University-Bongabong Campus,MIMAROPA,Region 04-B,Oriental Mindoro,Oriental Mindoro,Bongabong,Bongabong,Public SUC Satellite,12.7719508,121.4754426,valid,False,17,17052,1705203,1705203012
04163,Mindoro State University-Calapan City Campus,MIMAROPA,Region 04-B,Oriental Mindoro,Oriental Mindoro,Calapan City,Calapan City,Public SUC Satellite,13.3875996,121.1622264,valid,False,17,17052,1705205,1705205037
04060,Mindoro State University-Main Campus,MIMAROPA,Region 04-B,Oriental Mindoro,Oriental Mindoro,Victoria,Victoria,Public SUC Main,13.1577681,121.1870052,valid,False,17,17052,1705215,1705215001
04069,Occidental Mindoro State College,MIMAROPA,Region 04-B,Occidental Mindoro,Occidental Mindoro,San Jose,San Jose,Public SUC Main,12.3542993,121.0667427,valid,False,17,17051,1705110,1705110005
04142,Occidental Mindoro State College-Labangan Campus,MIMAROPA,Region 04-B,Occidental Mindoro,Occidental Mindoro,San Jose,San Jose,Public SUC Satellite,12.3542993,121.0667427,valid,False,17,17051,1705110,1705110005
17022,Occidental Mindoro State College-Lubang Campus,MIMAROPA,Region 04-B,Occidental Mindoro,Occidental Mindoro,Lubang,Lubang,Public SUC Satellite,13.8472511,120.1201209,valid,False,17,17051,1705104,1705104010
04179a,Occidental Mindoro State College-Mamburao,MIMAROPA,Region 04-B,Occidental Mindoro,Occidental Mindoro,MAMBURAO (Capital),MAMBURAO (Capital),Public SUC Satellite,13.2322925,120.5891783,valid,False,17,17051,1705106,1705106007
04179,Occidental Mindoro State College-Murtha Campus,MIMAROPA,Region 04-B,Occidental Mindoro,Occidental Mindoro,San Jose,San Jose,Public SUC Satellite,12.4573188,121.1185067,valid,False,17,17051,1705110,1705110031
04179b,Occidental Mindoro State College-Sablayan Campus,MIMAROPA,Region 04-B,Occidental Mindoro,Occidental Mindoro,Sablayan,Sablayan,Public SUC Satellite,12.8382425,120.7823944,valid,False,17,17051,1705109,1705109009
04074,Palawan Polytechnic College,MIMAROPA,Region 04-B,Palawan,Palawan,Puerto Princesa City,Puerto Princesa City,Private,9.9672163,118.78551,valid,False,17,17315,1731500,1731500045
04075,Palawan State University,MIMAROPA,Region 04-B,Palawan,Palawan,Puerto Princesa City,Puerto Princesa City,Public SUC Main,9.7773331,118.733847,valid,False,17,17315,1731500,1731500067
04075c,Palawan State University- Balabac,MIMAROPA,Region 04-B,Palawan,Palawan,Balabac,Balabac,Public SUC Satellite,7.9446691,117.0087877,valid,False,17,17053,1705304,1705304001
04207,Palawan State University- Brooke's Point,MIMAROPA,Region 04-B,Palawan,Palawan,Brooke's Point,Brooke's Point,Public SUC Satellite,8.8095853,117.8269888,valid,False,17,17053,1705306,1705306015
04206,Palawan State University-Araceli,MIMAROPA,Region 04-B,Palawan,Palawan,Araceli,Araceli,Public SUC Satellite,10.5776052,119.9870965,valid,False,17,17053,1705303,1705303013
04075d,Palawan State University-Bataraza,MIMAROPA,Region 04-B,Palawan,Palawan,Bataraza,Bataraza,Public SUC Satellite,8.6880102,117.6440811,valid,False,17,17053,1705305,1705305006
04208,Palawan State University-Coron,MIMAROPA,Region 04-B,Palawan,Palawan,Coron,Coron,Public SUC Satellite,12.01812,120.1879746,valid,False,17,17053,1705309,1705309032
04209,Palawan State University-Cuyo,MIMAROPA,Region 04-B,Palawan,Palawan,Cuyo,Cuyo,Public SUC Satellite,10.8548792,121.0077121,valid,False,17,17053,1705310,1705310017
04075b,Palawan State University-Dumaran,MIMAROPA,Region 04-B,Palawan,Palawan,Dumaran,Dumaran,Public SUC Satellite,10.5066996,119.6729965,valid,False,17,17053,1705311,1705311013
17011,Palawan State University-Linapacan,MIMAROPA,Region 04-B,Palawan,Palawan,Linapacan,Linapacan,Public SUC Satellite,11.4485393,119.8236554,valid,False,17,17053,1705313,1705313006
04075a,Palawan State University-Narra,MIMAROPA,Region 04-B,Palawan,Palawan,Narra,Narra,Public SUC Satellite,9.2506304,118.3460007,valid,False,17,17053,1705315,1705315013
,Palawan State University-New Ibajay El Nido,MIMAROPA,Region 04-B,Palawan,Palawan,EL NIDO (BACUIT),EL NIDO (BACUIT),Public SUC Satellite,11.2346001,119.4639969,valid,False,17,17053,1705312,1705312010
04210,Palawan State University-Quezon,MIMAROPA,Region 04-B,Palawan,Palawan,Quezon,Quezon,Public SUC Satellite,9.41846,118.252998,valid,False,17,17053,1705317,1705317003
04259,Palawan State University-Rizal,MIMAROPA,Region 04-B,Palawan,Palawan,Rizal,Rizal,Public SUC Satellite,8.683333,117.35,valid,False,17,17053,1705323,1705323011
04211,Palawan State University-Roxas,MIMAROPA,Region 04-B,Palawan,Palawan,Roxas,Roxas,Public SUC Satellite,10.3340193,119.3497379,valid,False,17,17053,1705318,1705318013
,Palawan State University-San Rafael Puerto Princesa City,MIMAROPA,Region 04-B,Palawan,Palawan,Puerto Princesa City,Puerto Princesa City,Public SUC Satellite,9.7773331,118.733847,valid,False,17,17315,1731500,1731500067
17016,Palawan State University-San Vicente,MIMAROPA,Region 04-B,Palawan,Palawan,San Vicente,San Vicente,Public SUC Satellite,10.5256426,119.2667027,valid,False,17,17053,1705319,1705319008
,Palawan State University-Sofronio Española,MIMAROPA,Region 04-B,Palawan,Palawan,SOFRONIO ESPA�?OLA,SOFRONIO ESPA�?OLA,Public SUC Satellite,9.0427952,117.9717606,valid,False,17,17053,1705324,1705324007
04212,Palawan State University-Taytay,MIMAROPA,Region 04-B,Palawan,Palawan,Taytay,Taytay,Public SUC Satellite,10.8214677,119.5180241,valid,False,17,17053,1705320,1705320020
04302,Palawan Technological College,MIMAROPA,Region 04-B,Palawan,Palawan,Puerto Princesa City,Puerto Princesa City,Private,9.7457582,118.7411638,valid,False,17,17315,1731500,1731500065
17002,Paradigm Colleges of Science and Technology,MIMAROPA,Region 04-B,Oriental Mindoro,Oriental Mindoro,Roxas,Roxas,Private,12.5916683,121.50926,valid,False,17,17052,1705212,1705212009
17006,Philippine Central Islands College Foundation,MIMAROPA,Region 04-B,Occidental Mindoro,Occidental Mindoro,San Jose,San Jose,Private,12.3601232,121.0586861,valid,False,17,17051,1705110,1705110039
17008,Pinamalayan Maritime Foundation and Technological College,MIMAROPA,Region 04-B,Oriental Mindoro,Oriental Mindoro,Pinamalayan,Pinamalayan,Private,13.0373839,121.4832245,valid,False,17,17052,1705209,1705209015
17023,Pola Community College,MIMAROPA,Region 04-B,Oriental Mindoro,Oriental Mindoro,Pola,Pola,Public LUC,13.143302,121.4414388,valid,False,17,17052,1705210,1705210018
13155m,Polytechnic University of the Philippines-Bansud Campus,MIMAROPA,Region 04-B,Oriental Mindoro,Oriental Mindoro,Bansud,Bansud,Public SUC Satellite,12.8624543,121.4568799,valid,False,17,17052,1705202,1705202008
13155o,Polytechnic University of the Philippines-Sablayan Campus,MIMAROPA,Region 04-B,Occidental Mindoro,Occidental Mindoro,Sablayan,Sablayan,Public SUC Satellite,12.8471942,120.7853664,valid,False,17,17051,1705109,1705109002
04193,Prince of Peace College,MIMAROPA,Region 04-B,Oriental Mindoro,Oriental Mindoro,Puerto Galera,Puerto Galera,Private,13.5015699,120.9564396,valid,False,17,17052,1705211,1705211012
04216,Romblon State University-Cajidiocan Campus,MIMAROPA,Region 04-B,Romblon,Romblon,Cajidiocan,Cajidiocan,Public SUC Satellite,12.3728776,122.6837958,valid,False,17,17059,1705903,1705903013
04213,Romblon State University-Calatrava Campus,MIMAROPA,Region 04-B,Romblon,Romblon,Calatrava,Calatrava,Public SUC Satellite,12.6171564,122.0608399,valid,False,17,17059,1705904,1705904006
04094,Romblon State University-Main,MIMAROPA,Region 04-B,Romblon,Romblon,Odiongan,Odiongan,Public SUC Main,12.3963584,121.9878325,valid,False,17,17059,1705909,1705909029
04219a,Romblon State University-Romblon Campus,MIMAROPA,Region 04-B,Romblon,Romblon,Romblon,Romblon,Public SUC Satellite,12.5483378,122.2627301,valid,False,17,17059,1705910,1705910030
04215,Romblon State University-San Agustin Campus,MIMAROPA,Region 04-B,Romblon,Romblon,San Agustin,San Agustin,Public SUC Satellite,12.6043762,122.1317406,valid,False,17,17059,1705911,1705911005
04093,Romblon State University-San Andres Campus,MIMAROPA,Region 04-B,Romblon,Romblon,San Andres,San Andres,Public SUC Satellite,12.5201686,122.0131508,valid,False,17,17059,1705912,1705912010
04152,Romblon State University-San Fernando Campus,MIMAROPA,Region 04-B,Romblon,Romblon,San Fernando,San Fernando,Public SUC Satellite,12.3049058,122.6015472,valid,False,17,17059,1705913,1705913011
17013,Romblon State University-San Jose Campus,MIMAROPA,Region 04-B,Romblon,Romblon,San Jose,San Jose,Public SUC Satellite,12.0463441,121.9483751,valid,False,17,17059,1705914,1705914004
04217,Romblon State University-Sta. Fe Campus,MIMAROPA,Region 04-B,Romblon,Romblon,Sta. Fe,Sta. Fe,Public SUC Satellite,12.1567046,121.9943762,valid,False,17,17059,1705915,1705915010
04218,Romblon State University-Sta. Maria Campus,MIMAROPA,Region 04-B,Romblon,Romblon,SANTA MARIA,SANTA MARIA,Public SUC Satellite,12.3923425,122.0914584,valid,False,17,17059,1705917,1705917002
17009,STI College-Puerto Princesa,MIMAROPA,Region 04-B,Palawan,Palawan,Puerto Princesa City,Puerto Princesa City,Private,9.7391268,118.7404865,valid,False,17,17315,1731500,1731500028
04100,Saint Augustine Seminary,MIMAROPA,Region 04-B,Oriental Mindoro,Oriental Mindoro,Calapan City,Calapan City,Private,13.366669,121.199996,valid,False,17,17052,1705205,1705205042
17024,San Brendan College,MIMAROPA,Region 04-B,Palawan,Palawan,Taytay,Taytay,Private,10.8176202,119.4995481,valid,False,17,17053,1705320,1705320020
04110,San Francisco Javier College,MIMAROPA,Region 04-B,Palawan,Palawan,Narra,Narra,Private,9.271902,118.4121497,valid,False,17,17053,1705315,1705315014
04236,San Lorenzo Ruiz Seminary,MIMAROPA,Region 04-B,Romblon,Romblon,Odiongan,Odiongan,Private,12.4108196,122.0059244,valid,False,17,17059,1705909,1705909022
04117,Santa Cruz Institute-Marinduque,MIMAROPA,Region 04-B,Marinduque,Marinduque,SANTA CRUZ,SANTA CRUZ,Private,13.476817,122.0266573,valid,False,17,17040,1704005,1704005008
04118,Seminario De San Jose,MIMAROPA,Region 04-B,Palawan,Palawan,Puerto Princesa City,Puerto Princesa City,Private,9.7699741,118.7368296,valid,False,17,17315,1731500,1731500067
,Southwestern College of Maritime Business and Technology,MIMAROPA,Region 04-B,Oriental Mindoro,Oriental Mindoro,Calapan City,Calapan City,Private,13.4174178,121.1850727,valid,False,17,17052,1705205,1705205013
17001,Southwestern Institute of Business and Technology,MIMAROPA,Region 04-B,Oriental Mindoro,Oriental Mindoro,Pinamalayan,Pinamalayan,Private,13.0490498,121.4556074,valid,False,17,17052,1705209,1705209021
04332b,St. Anthony College-Calapan City,MIMAROPA,Region 04-B,Oriental Mindoro,Oriental Mindoro,Calapan City,Calapan City,Private,13.366847,121.1676373,valid,False,17,17052,1705205,1705205005
04040,St. Mary's College of Marinduque,MIMAROPA,Region 04-B,Marinduque,Marinduque,Boac,Boac,Private,13.4454805,121.8435733,valid,False,17,17040,1704001,1704001061
04073,Western Philippines University,MIMAROPA,Region 04-B,Palawan,Palawan,Aborlan,Aborlan,Public SUC Main,9.441716,118.5635804,valid,False,17,17053,1705301,1705301016
04073b,Western Philippines University-Busuanga,MIMAROPA,Region 04-B,Palawan,Palawan,Busuanga,Busuanga,Public SUC Satellite,12.1586189,119.9277947,valid,False,17,17053,1705307,1705307008
04073c,Western Philippines University-Culion,MIMAROPA,Region 04-B,Palawan,Palawan,Culion,Culion,Public SUC Satellite,11.8219004,120.0199966,valid,False,17,17053,1705322,1705322010
04073a,Western Philippines University-El Nido,MIMAROPA,Region 04-B,Palawan,Palawan,EL NIDO (BACUIT),EL NIDO (BACUIT),Public SUC Satellite,11.2063162,119.4247308,valid,False,17,17053,1705312,1705312015
04227,Western Philippines University-Puerto Princesa,MIMAROPA,Region 04-B,Palawan,Palawan,Puerto Princesa City,Puerto Princesa City,Public SUC Satellite,9.7846326,118.7275157,valid,False,17,17315,1731500,1731500053
04073d,Western Philippines University-Quezon,MIMAROPA,Region 04-B,Palawan,Palawan,Quezon,Quezon,Public SUC Satellite,9.4607698,118.2059849,valid,False,17,17053,1705317,1705317003
04073e,Western Philippines University-Rio Tuba,MIMAROPA,Region 04-B,Palawan,Palawan,Bataraza,Bataraza,Public SUC Satellite,8.5501161,117.4397164,valid,False,17,17053,1705305,1705305013
13329,ABE International Business College-Caloocan City,NCR,NCR,METRO MANILA,METRO MANILA,Caloocan City,Caloocan City,Private,14.6568297,120.9852004,valid,False,13,13801,1380100,1380100086
13308,ABE International College of Business and Accountancy-Cubao,NCR,NCR,METRO MANILA,METRO MANILA,Quezon City,Quezon City,Private,14.6004744,120.9961487,valid,False,13,13806,1380600,1380600410
,ABE International College of Business and Economics-Las Pi�?±as,NCR,NCR,METRO MANILA,METRO MANILA,CITY OF LAS PI�?AS,CITY OF LAS PI�?AS,Private,14.444546,120.9938736,valid,False,13,13802,1380200,1380200017
13456,ACLC College of Commonwealth,NCR,NCR,METRO MANILA,METRO MANILA,Quezon City,Quezon City,Private,14.6786857,121.0828801,valid,False,13,13813,1381300,1381300140
13457,ACLC College of Manila,NCR,NCR,METRO MANILA,METRO MANILA,Manila,Manila,Private,14.61335,120.9877807,valid,False,13,13806,1380600,1380600342
13444,ACLC College of Marikina,NCR,NCR,METRO MANILA,METRO MANILA,CITY OF MARIKINA,CITY OF MARIKINA,Private,14.65073,121.1028546,valid,False,13,13807,1380700,1380700003
13377,ACLC College of Taguig,NCR,NCR,Metro Manila,Metro Manila,TAGUIG CITY,TAGUIG CITY,Private,14.5176184,121.0508645,valid,False,13,13815,1381500,1381500025
13257,AMA Computer College-Caloocan,NCR,NCR,METRO MANILA,METRO MANILA,Caloocan City,Caloocan City,Private,14.6576626,120.9775632,valid,False,13,13801,1380100,1380100080
13258,AMA Computer College-Fairview,NCR,NCR,METRO MANILA,METRO MANILA,Quezon City,Quezon City,Private,14.7202823,121.0614798,valid,False,13,13813,1381300,1381300142
,AMA Computer College-Las Pi�?±as,NCR,NCR,METRO MANILA,METRO MANILA,CITY OF LAS PI�?AS,CITY OF LAS PI�?AS,Private,14.4514205,120.9791933,valid,False,13,13802,1380200,1380200014
13006,AMA Computer College-Makati,NCR,NCR,METRO MANILA,METRO MANILA,CITY OF MAKATI,CITY OF MAKATI,Private,14.5482673,121.0123802,valid,False,13,13803,1380300,1380300001
,AMA Computer College-Para�?±aque,NCR,NCR,METRO MANILA,METRO MANILA,CITY OF PARA�?AQUE,CITY OF PARA�?AQUE,Private,14.4793095,121.0198229,valid,False,13,13810,1381000,1381000008
13282,AMA Computer College-Pasig City,NCR,NCR,METRO MANILA,METRO MANILA,CITY OF PASIG,CITY OF PASIG,Private,14.586714,121.0620028,valid,False,13,13812,1381200,1381200019
13260,AMA Computer College-Sta. Mesa,NCR,NCR,METRO MANILA,METRO MANILA,Manila,Manila,Private,14.6000004,121.0166702,valid,False,13,13806,1380600,1380600589
13007,AMA Computer University,NCR,NCR,METRO MANILA,METRO MANILA,Quezon City,Quezon City,Private,14.6760413,121.0437003,valid,False,13,13813,1381300,1381300080
13355,AMA School of Medicine,NCR,NCR,METRO MANILA,METRO MANILA,CITY OF MAKATI,CITY OF MAKATI,Private,14.5682885,121.0194644,valid,False,13,13803,1380300,1380300014
13407,Access Computer and Technical Colleges-Camarin,NCR,NCR,METRO MANILA,METRO MANILA,Caloocan City,Caloocan City,Private,14.6298372,121.0701042,valid,False,13,13813,1381300,1381300034
13321,Access Computer and Technical Colleges-Cubao,NCR,NCR,METRO MANILA,METRO MANILA,Quezon City,Quezon City,Private,14.6298372,121.0701042,valid,False,13,13813,1381300,1381300034
,Access Computer and Technical Colleges-Lagro,NCR,NCR,METRO MANILA,METRO MANILA,Quezon City,Quezon City,Private,14.6298372,121.0701042,valid,False,13,13813,1381300,1381300034
13301,Access Computer and Technical Colleges-Manila,NCR,NCR,METRO MANILA,METRO MANILA,Manila,Manila,Private,14.5783005,121.0,valid,False,13,13806,1380600,1380600808
13001,Adamson University,NCR,NCR,METRO MANILA,METRO MANILA,Manila,Manila,Private,14.5874779,120.9856156,valid,False,13,13806,1380600,1380600661
13002,Air Link International Aviation College,NCR,NCR,METRO MANILA,METRO MANILA,Pasay City,Pasay City,Private,14.5208125,121.0013292,valid,False,13,13811,1381100,1381100191
13005,Alliance Graduate School,NCR,NCR,METRO MANILA,METRO MANILA,Quezon City,Quezon City,Private,14.6558774,121.0253717,valid,False,13,13813,1381300,1381300130
13210,Angelicum College,NCR,NCR,METRO MANILA,METRO MANILA,Quezon City,Quezon City,Private,14.6276102,121.0100487,valid,False,13,13813,1381300,1381300065
13010,Arellano University-Malabon,NCR,NCR,METRO MANILA,METRO MANILA,CITY OF MALABON,CITY OF MALABON,Private,14.6704038,120.9492115,valid,False,13,13804,1380400,1380400002
13414,Arellano University-Mandaluyong,NCR,NCR,METRO MANILA,METRO MANILA,CITY OF MANDALUYONG,CITY OF MANDALUYONG,Private,14.5914462,121.0245651,valid,False,13,13806,1380600,1380600893
13009,Arellano University-Manila,NCR,NCR,METRO MANILA,METRO MANILA,Manila,Manila,Private,14.5995124,120.9842195,valid,False,13,13806,1380600,1380600307
13011,Arellano University-Pasay,NCR,NCR,METRO MANILA,METRO MANILA,Pasay City,Pasay City,Private,14.5606003,120.9960022,valid,False,13,13811,1381100,1381100041
13012,Arellano University-Pasig,NCR,NCR,METRO MANILA,METRO MANILA,CITY OF PASIG,CITY OF PASIG,Private,14.5731427,121.0795735,valid,False,13,13812,1381200,1381200005
13277,Asia Graduate School of Theology,NCR,NCR,METRO MANILA,METRO MANILA,Quezon City,Quezon City,Private,14.6350543,121.0384971,valid,False,13,13813,1381300,1381300116
13422,Asia Harvesters College and Seminary,NCR,NCR,METRO MANILA,METRO MANILA,Quezon City,Quezon City,Private,14.680397,121.080759,valid,False,13,13813,1381300,1381300140
13014,Asia Pacific College,NCR,NCR,METRO MANILA,METRO MANILA,CITY OF MAKATI,CITY OF MAKATI,Private,14.5311124,121.021315,valid,False,13,13803,1380300,1380300013
13211,Asian College of Science and Technology-Cubao,NCR,NCR,METRO MANILA,METRO MANILA,Quezon City,Quezon City,Private,14.6294389,121.0687579,valid,False,13,13813,1381300,1381300034
13015,Asian Institute for Distance Education,NCR,NCR,METRO MANILA,METRO MANILA,CITY OF MAKATI,CITY OF MAKATI,Private,14.554779,121.020651,valid,False,13,13803,1380300,1380300025
13305,Asian Institute of Computer Studies,NCR,NCR,METRO MANILA,METRO MANILA,Caloocan City,Caloocan City,Private,14.6511177,120.971753,valid,False,13,13801,1380100,1380100016
13406,Asian Institute of Computer Studies-Bicutan,NCR,NCR,METRO MANILA,METRO MANILA,CITY OF PARA�?AQUE,CITY OF PARA�?AQUE,Private,14.4853621,121.0407112,valid,False,13,13810,1381000,1381000008
13378,Asian Institute of Computer Studies-Quezon City,NCR,NCR,METRO MANILA,METRO MANILA,Quezon City,Quezon City,Private,14.7054419,121.072935,valid,False,13,13813,1381300,1381300041
13016,Asian Institute of Journalism and Communication,NCR,NCR,METRO MANILA,METRO MANILA,Manila,Manila,Private,14.616514,121.000759,valid,False,13,13806,1380600,1380600530
13017,Asian Institute of Management,NCR,NCR,METRO MANILA,METRO MANILA,CITY OF MAKATI,CITY OF MAKATI,Private,14.552473,121.018728,valid,False,13,13803,1380300,1380300025
13018,Asian Institute of Maritime Studies,NCR,NCR,METRO MANILA,METRO MANILA,Pasay City,Pasay City,Private,14.5461269,120.9922325,valid,False,13,13811,1381100,1381100013
,Asian Institute of Science and Technology,NCR,NCR,METRO MANILA,METRO MANILA,Quezon City,Quezon City,Private,14.6760413,121.0437003,valid,False,13,13813,1381300,1381300080
13020,Asian Social Institute,NCR,NCR,METRO MANILA,METRO MANILA,MANILA,MANILA,Private,14.5774534,120.9887399,valid,False,13,13806,1380600,1380600675
13021,Asian Theological Seminary,NCR,NCR,METRO MANILA,METRO MANILA,Quezon City,Quezon City,Private,14.6350544,121.0384971,valid,False,13,13813,1381300,1381300116
13022,Assumption College,NCR,NCR,METRO MANILA,METRO MANILA,CITY OF MAKATI,CITY OF MAKATI,Private,14.5468471,121.0218989,valid,False,13,13803,1380300,1380300025
13023a,Ateneo De Manila University School of Medicine and Public Health,NCR,NCR,METRO MANILA,METRO MANILA,CITY OF PASIG,CITY OF PASIG,Private,14.5905214,121.0703492,valid,False,13,13812,1381200,1381200029
13024,Ateneo de Manila University Graduate School of Business,NCR,NCR,METRO MANILA,METRO MANILA,CITY OF MAKATI,CITY OF MAKATI,Private,14.5633226,121.035627,valid,False,13,13803,1380300,1380300020
,Ateneo de Manila University-Quezon City,NCR,NCR,METRO MANILA,METRO MANILA,Quezon City,Quezon City,Private,14.6395704,121.0785779,valid,False,13,13813,1381300,1381300055
13025,Bernardo College,NCR,NCR,METRO MANILA,METRO MANILA,CITY OF LAS PI�?AS,CITY OF LAS PI�?AS,Private,14.4693473,120.9726481,valid,False,13,13802,1380200,1380200007
13373,Bestlink College of the Philippines,NCR,NCR,METRO MANILA,METRO MANILA,Quezon City,Quezon City,Private,14.7286114,121.041674,valid,False,13,13813,1381300,1381300046
13400,Bethel Bible College of the Assemblies of God,NCR,NCR,METRO MANILA,METRO MANILA,CITY OF VALENZUELA,CITY OF VALENZUELA,Private,14.6897023,120.9621522,valid,False,13,13816,1381600,1381600017
13026,Biblical Seminary of the Philippines,NCR,NCR,METRO MANILA,METRO MANILA,CITY OF VALENZUELA,CITY OF VALENZUELA,Private,14.6909755,120.9812144,valid,False,13,13816,1381600,1381600008
13027,CAP College Foundation,NCR,NCR,METRO MANILA,METRO MANILA,CITY OF MAKATI,CITY OF MAKATI,Private,14.555589,121.014853,valid,False,13,13803,1380300,1380300025
13105,CICM Maryhill School of Theology,NCR,NCR,METRO MANILA,METRO MANILA,Quezon City,Quezon City,Private,14.6224694,121.0290625,valid,False,13,13813,1381300,1381300060
13429,CIIT College of Arts and Technology,NCR,NCR,METRO MANILA,METRO MANILA,Quezon City,Quezon City,Private,14.6294698,121.0418127,valid,False,13,13813,1381300,1381300048
13340,Capitol Medical Center Colleges,NCR,NCR,METRO MANILA,METRO MANILA,Quezon City,Quezon City,Private,14.6270666,121.0110021,valid,False,13,13813,1381300,1381300065
13029,Central Colleges of the Philippines,NCR,NCR,METRO MANILA,METRO MANILA,Quezon City,Quezon City,Private,14.605926,121.0194646,valid,False,13,13813,1381300,1381300031
,Centro Escolar Las Pi�?±as,NCR,NCR,METRO MANILA,METRO MANILA,CITY OF LAS PI�?AS,CITY OF LAS PI�?AS,Private,14.4514205,120.9791933,valid,False,13,13802,1380200,1380200014
13367,Centro Escolar University-Makati,NCR,NCR,METRO MANILA,METRO MANILA,CITY OF MAKATI,CITY OF MAKATI,Private,14.56069,121.012709,valid,False,13,13803,1380300,1380300023
13031,Centro Escolar University-Manila,NCR,NCR,METRO MANILA,METRO MANILA,MANILA,MANILA,Private,14.5988806,120.9917563,valid,False,13,13806,1380600,1380600641
13032,Chiang Kai Shek College,NCR,NCR,METRO MANILA,METRO MANILA,MANILA,MANILA,Private,14.6076248,120.9767277,valid,False,13,13806,1380600,1380600259
13243,Children of Mary Immaculate College,NCR,NCR,METRO MANILA,METRO MANILA,CITY OF VALENZUELA,CITY OF VALENZUELA,Private,14.693962,120.967662,valid,False,13,13816,1381600,1381600017
13034,Chinese General Hospital Colleges,NCR,NCR,METRO MANILA,METRO MANILA,MANILA,MANILA,Private,14.625192,120.988138,valid,False,13,13806,1380600,1380600372
13401,Christ the King College of Science and Technology,NCR,NCR,METRO MANILA,METRO MANILA,CITY OF MUNTINLUPA,CITY OF MUNTINLUPA,Private,14.3971852,121.0470678,valid,False,13,13808,1380800,1380800006
,City University of Pasay,NCR,NCR,METRO MANILA,METRO MANILA,Pasay City,Pasay City,Public LUC,14.544356,120.995515,valid,False,13,13811,1381100,1381100070
13093,City of Malabon University,NCR,NCR,METRO MANILA,METRO MANILA,CITY OF MALABON,CITY OF MALABON,Public LUC,14.6537811,120.9601605,valid,False,13,13804,1380400,1380400010
13454,Colegio de Muntinlupa,NCR,NCR,METRO MANILA,METRO MANILA,CITY OF MUNTINLUPA,CITY OF MUNTINLUPA,Public LUC,14.4575121,121.0511984,valid,False,13,13808,1380800,1380800007
13402,Colegio de San Gabriel Archangel of Caloocan,NCR,NCR,METRO MANILA,METRO MANILA,Caloocan City,Caloocan City,Private,14.7806698,121.0345326,valid,False,13,13801,1380100,1380100176
13037,Colegio de San Juan de Letran,NCR,NCR,METRO MANILA,METRO MANILA,MANILA,MANILA,Private,14.5938186,120.9768631,valid,False,13,13806,1380600,1380600654
13038,Colegio de San Lorenzo,NCR,NCR,METRO MANILA,METRO MANILA,Quezon City,Quezon City,Private,14.670556,121.0369143,valid,False,13,13813,1381300,1381300012
,Colegio de Sta. Teresa de Avila Foundation,NCR,NCR,METRO MANILA,METRO MANILA,Quezon City,Quezon City,Private,14.7338288,121.0511969,valid,False,13,13813,1381300,1381300046
,College of Arts and Sciences of Asia and the Pacific,NCR,NCR,METRO MANILA,METRO MANILA,CITY OF PASIG,CITY OF PASIG,Private,14.5671911,121.1305191,valid,False,04,04058,0405813,0405813004
13390,College of Divine Wisdom,NCR,NCR,METRO MANILA,METRO MANILA,CITY OF PARA�?AQUE,CITY OF PARA�?AQUE,Private,14.4896048,120.9949784,valid,False,13,13810,1381000,1381000004
13451,College of Saint Amatiel,NCR,NCR,METRO MANILA,METRO MANILA,CITY OF MALABON,CITY OF MALABON,Private,14.6624827,120.9502175,valid,False,13,13804,1380400,1380400016
13362,College of St. Catherine,NCR,NCR,METRO MANILA,METRO MANILA,Quezon City,Quezon City,Private,14.679436,121.018576,valid,False,13,13813,1381300,1381300137
13040,Concordia College,NCR,NCR,METRO MANILA,METRO MANILA,MANILA,MANILA,Private,14.5811455,121.002543,valid,False,13,13806,1380600,1380600820
,Criminal Justice College,NCR,NCR,METRO MANILA,METRO MANILA,CITY OF MUNTINLUPA,CITY OF MUNTINLUPA,Private,14.380296,121.046852,valid,False,13,13808,1380800,1380800008
13405,Datamex College of Saint Adeline-Fairview,NCR,NCR,METRO MANILA,METRO MANILA,Quezon City,Quezon City,Private,14.705327,121.0778961,valid,False,13,13813,1381300,1381300041
,Datamex College of Saint Adeline-Para�?±aque,NCR,NCR,METRO MANILA,METRO MANILA,CITY OF PARA�?AQUE,CITY OF PARA�?AQUE,Private,14.479331,120.998065,valid,False,13,13810,1381000,1381000004
,Datamex College of Saint Adeline-Valenzuela,NCR,NCR,METRO MANILA,METRO MANILA,CITY OF VALENZUELA,CITY OF VALENZUELA,Private,14.6767368,120.9829711,valid,False,13,13816,1381600,1381600019
13046,De La Salle University-Manila,NCR,NCR,METRO MANILA,METRO MANILA,MANILA,MANILA,Private,14.5647642,120.9931652,valid,False,13,13806,1380600,1380600719
13072,De La Salle-Araneta University,NCR,NCR,METRO MANILA,METRO MANILA,CITY OF MALABON,CITY OF MALABON,Private,14.6711938,120.9985612,valid,False,13,13804,1380400,1380400015
13050,De La Salle-College of Saint Benilde,NCR,NCR,METRO MANILA,METRO MANILA,MANILA,MANILA,Private,14.5636358,120.9950657,valid,False,13,13806,1380600,1380600728
13048,De Ocampo Memorial College,NCR,NCR,METRO MANILA,METRO MANILA,Manila,Manila,Private,14.6016865,121.0069672,valid,False,13,13806,1380600,1380600627
13310,Development Academy of the Philippines,NCR,NCR,METRO MANILA,METRO MANILA,CITY OF PASIG,CITY OF PASIG,OGS,14.578578,121.057866,valid,False,13,13812,1381200,1381200019
13370,Diliman College,NCR,NCR,METRO MANILA,METRO MANILA,Quezon City,Quezon City,Private,14.6747106,121.0820308,valid,False,13,13813,1381300,1381300066
13263,Divine Mercy College Foundation,NCR,NCR,METRO MANILA,METRO MANILA,Caloocan City,Caloocan City,Private,14.6611807,120.9795037,valid,False,13,13801,1380100,1380100080
13049,Divine Word Mission Seminary,NCR,NCR,METRO MANILA,METRO MANILA,Quezon City,Quezon City,Private,14.624224,121.030472,valid,False,13,13813,1381300,1381300024
,Dominican College,NCR,NCR,METRO MANILA,METRO MANILA,CITY OF SAN JUAN,CITY OF SAN JUAN,Private,14.598381,121.030072,valid,False,13,13814,1381400,1381400019
13213,Don Bosco Center of Studies,NCR,NCR,METRO MANILA,METRO MANILA,CITY OF PARA�?AQUE,CITY OF PARA�?AQUE,Private,14.4784703,121.0272822,valid,False,13,13810,1381000,1381000008
13052,Don Bosco Technical College,NCR,NCR,METRO MANILA,METRO MANILA,CITY OF MANDALUYONG,CITY OF MANDALUYONG,Private,14.5903915,121.0252637,valid,False,13,13805,1380500,1380500021
13423,Don Carlo Cavina School,NCR,NCR,METRO MANILA,METRO MANILA,CITY OF LAS PI�?AS,CITY OF LAS PI�?AS,Private,14.4589005,120.9929962,valid,False,13,13802,1380200,1380200016
13053,Dr. Carlos S. Lanting College,NCR,NCR,METRO MANILA,METRO MANILA,Quezon City,Quezon City,Private,14.6796594,121.0206033,valid,False,13,13813,1381300,1381300137
,Dr. Filemon C. Aguilar Memorial College of Las Pi�?±as,NCR,NCR,METRO MANILA,METRO MANILA,CITY OF LAS PI�?AS,CITY OF LAS PI�?AS,Public LUC,14.4388401,121.0094764,valid,False,13,13802,1380200,1380200018
13428,Dr. Jose Fabella Memorial Hospital School of Midwifery,NCR,NCR,METRO MANILA,METRO MANILA,MANILA,MANILA,OGS,14.6062156,120.9842759,valid,False,13,13806,1380600,1380600311
13419,Eclaro Academy,NCR,NCR,METRO MANILA,METRO MANILA,Quezon City,Quezon City,Private,14.6722182,121.0780047,valid,False,13,13813,1381300,1381300066
,Electron College of Technical Education,NCR,NCR,METRO MANILA,METRO MANILA,Quezon City,Quezon City,Private,14.698849,121.034194,valid,False,13,13813,1381300,1381300006
13054,Emilio Aguinaldo College,NCR,NCR,METRO MANILA,METRO MANILA,MANILA,MANILA,Private,14.582867,120.9871053,valid,False,13,13806,1380600,1380600674
13357,Enderun Colleges,NCR,NCR,Metro Manila,Metro Manila,TAGUIG CITY,TAGUIG CITY,Private,14.5325601,121.0528236,valid,False,13,13815,1381500,1381500025
,Entrepreneurs School of Asia,NCR,NCR,METRO MANILA,METRO MANILA,Quezon City,Quezon City,Private,14.6053247,121.0845998,valid,False,13,13813,1381300,1381300011
13056,"Eulogio ""Amang"" Rodriguez Institute of Science and Technology",NCR,NCR,METRO MANILA,METRO MANILA,Manila,Manila,Public SUC Main,14.5990138,121.001255,valid,False,13,13806,1380600,1380600635
13063,FEATI University,NCR,NCR,METRO MANILA,METRO MANILA,MANILA,MANILA,Private,14.5972018,120.9818168,valid,False,13,13806,1380600,1380600306
13446,FEU Alabang,NCR,NCR,METRO MANILA,METRO MANILA,CITY OF MUNTINLUPA,CITY OF MUNTINLUPA,Private,14.4106908,121.0380546,valid,False,13,13808,1380800,1380800001
13458,FEU Diliman,NCR,NCR,METRO MANILA,METRO MANILA,Quezon City,Quezon City,Private,14.6852744,121.0644142,valid,False,13,13813,1381300,1381300080
13438,FEU Institute of Technology,NCR,NCR,METRO MANILA,METRO MANILA,Manila,Manila,Private,14.604119,120.9886247,valid,False,13,13806,1380600,1380600396
,FEU-Dr. Nicanor Reyes Medical Foundation,NCR,NCR,METRO MANILA,METRO MANILA,Quezon City,Quezon City,Private,14.6992003,121.0669756,valid,False,13,13813,1381300,1381300041
13065,FEU-FERN College,NCR,NCR,METRO MANILA,METRO MANILA,Quezon City,Quezon City,Private,14.6852744,121.0644142,valid,False,13,13813,1381300,1381300080
13061,Far Eastern University,NCR,NCR,METRO MANILA,METRO MANILA,Manila,Manila,Private,14.5995124,120.9842195,valid,False,13,13806,1380600,1380600307
,Far Eastern University-Makati,NCR,NCR,METRO MANILA,METRO MANILA,CITY OF MAKATI,CITY OF MAKATI,Private,14.5620637,121.0171714,valid,False,13,13803,1380300,1380300002
13064,Febias College of Bible,NCR,NCR,METRO MANILA,METRO MANILA,CITY OF VALENZUELA,CITY OF VALENZUELA,Private,14.6883445,120.9806333,valid,False,13,13816,1381600,1381600008
13339,Flight School International,NCR,NCR,METRO MANILA,METRO MANILA,CITY OF PARA�?AQUE,CITY OF PARA�?AQUE,Private,14.4668317,121.0154212,valid,False,13,13810,1381000,1381000013
13447,GK College of Business Arts and Technology,NCR,NCR,METRO MANILA,METRO MANILA,CITY OF MANDALUYONG,CITY OF MANDALUYONG,Private,14.5763901,121.0404236,valid,False,13,13805,1380500,1380500022
,Gardner College Diliman,NCR,NCR,METRO MANILA,METRO MANILA,Quezon City,Quezon City,Private,14.638213,121.04088,valid,False,13,13813,1381300,1381300116
13312,Global City Innovative College,NCR,NCR,METRO MANILA,METRO MANILA,CITY OF MAKATI,CITY OF MAKATI,Private,14.5620941,121.0428327,valid,False,13,13803,1380300,1380300010
13374,Global Reciprocal Colleges,NCR,NCR,METRO MANILA,METRO MANILA,Caloocan City,Caloocan City,Private,14.6498365,120.9839212,valid,False,13,13801,1380100,1380100106
13375,Golden Link College Foundation,NCR,NCR,METRO MANILA,METRO MANILA,Caloocan City,Caloocan City,Private,14.7455942,121.0569658,valid,False,13,13801,1380100,1380100177
13069,Governor Andres Pascual College,NCR,NCR,METRO MANILA,METRO MANILA,CITY OF NAVOTAS,CITY OF NAVOTAS,Private,14.6636427,120.9444687,valid,False,13,13809,1380900,1380900010
13363,Grace Christian College,NCR,NCR,METRO MANILA,METRO MANILA,Quezon City,Quezon City,Private,14.6503491,121.0053073,valid,False,13,13813,1381300,1381300003
13070,Greenville College,NCR,NCR,METRO MANILA,METRO MANILA,CITY OF PASIG,CITY OF PASIG,Private,14.6088299,121.0975981,valid,False,13,13812,1381200,1381200011
13435,Guang Ming College,NCR,NCR,METRO MANILA,METRO MANILA,MANILA,MANILA,Private,14.5606934,120.9920896,valid,False,13,13806,1380600,1380600719
,Guzman College of Science and Technology,NCR,NCR,METRO MANILA,METRO MANILA,Manila,Manila,Private,14.5999709,120.9852186,valid,False,13,13806,1380600,1380600394
,Holy Rosary College Foundation,NCR,NCR,METRO MANILA,METRO MANILA,Caloocan City,Caloocan City,Private,14.7660687,121.0702401,valid,False,13,13801,1380100,1380100186
,ICI Global University,NCR,NCR,METRO MANILA,METRO MANILA,CITY OF PASIG,CITY OF PASIG,Private,14.5763768,121.0851097,valid,False,13,13812,1381200,1381200012
13295,IETI College of Science and Technology-Marikina,NCR,NCR,METRO MANILA,METRO MANILA,CITY OF MARIKINA,CITY OF MARIKINA,Private,14.6343604,121.099728,valid,False,13,13807,1380700,1380700009
13216,IETI College-Alabang,NCR,NCR,METRO MANILA,METRO MANILA,CITY OF MUNTINLUPA,CITY OF MUNTINLUPA,Private,14.4180479,121.0466461,valid,False,13,13808,1380800,1380800001
13237,Immaculada Concepcion College,NCR,NCR,METRO MANILA,METRO MANILA,Caloocan City,Caloocan City,Private,14.7679445,121.0797376,valid,False,13,13801,1380100,1380100185
,Immaculate Heart of Mary College-Para�?±aque,NCR,NCR,METRO MANILA,METRO MANILA,CITY OF PARA�?AQUE,CITY OF PARA�?AQUE,Private,14.477009,121.0235147,valid,False,13,13810,1381000,1381000008
13246,Informatics College-Manila,NCR,NCR,METRO MANILA,METRO MANILA,Manila,Manila,Private,14.6010898,120.989215,valid,False,13,13806,1380600,1380600390
13333,Informatics College-Northgate,NCR,NCR,METRO MANILA,METRO MANILA,CITY OF MUNTINLUPA,CITY OF MUNTINLUPA,Private,14.423209,121.0406027,valid,False,13,13808,1380800,1380800001
13315,Information and Communications Technology Academy,NCR,NCR,METRO MANILA,METRO MANILA,CITY OF MAKATI,CITY OF MAKATI,Private,14.55953,121.007808,valid,False,13,13803,1380300,1380300023
13380,Infotech College of Arts and Sciences Philippines,NCR,NCR,METRO MANILA,METRO MANILA,CITY OF PASIG,CITY OF PASIG,Private,14.620091,121.096606,valid,False,13,13812,1381200,1381200006
13077,Institute of Community and Family Health,NCR,NCR,METRO MANILA,METRO MANILA,Quezon City,Quezon City,Private,14.6211433,121.0091847,valid,False,13,13813,1381300,1381300032
13078,Institute of Formation and Religious Studies,NCR,NCR,METRO MANILA,METRO MANILA,Quezon City,Quezon City,Private,14.6164352,121.0432206,valid,False,13,13813,1381300,1381300050
13424,Integrated Innovation and Hospitality Colleges,NCR,NCR,METRO MANILA,METRO MANILA,Quezon City,Quezon City,Private,14.6790734,121.03003,valid,False,13,13813,1381300,1381300120
13267,Interface Computer College-Caloocan,NCR,NCR,METRO MANILA,METRO MANILA,Caloocan City,Caloocan City,Private,14.651052,120.983116,valid,False,13,13801,1380100,1380100062
13079,Interface Computer College-Manila,NCR,NCR,METRO MANILA,METRO MANILA,Manila,Manila,Private,14.6028849,120.986107,valid,False,13,13806,1380600,1380600395
13081,International Baptist College,NCR,NCR,METRO MANILA,METRO MANILA,CITY OF MANDALUYONG,CITY OF MANDALUYONG,Private,14.575662,121.047232,valid,False,13,13805,1380500,1380500016
13082,International Graduate School of Leadership,NCR,NCR,METRO MANILA,METRO MANILA,Quezon City,Quezon City,Private,14.6873579,121.0339857,valid,False,13,13813,1381300,1381300111
,Jesus Reigns Christian College Foundation,NCR,NCR,METRO MANILA,METRO MANILA,MANILA,MANILA,Private,14.573636,120.989143,valid,False,13,13806,1380600,1380600696
13084,Jose Rizal University,NCR,NCR,METRO MANILA,METRO MANILA,CITY OF MANDALUYONG,CITY OF MANDALUYONG,Private,14.5925264,121.0285593,valid,False,13,13805,1380500,1380500009
13302,Kalayaan College,NCR,NCR,METRO MANILA,METRO MANILA,Quezon City,Quezon City,Private,14.6181463,121.0424602,valid,False,13,13813,1381300,1381300050
13087,La Consolacion College-Caloocan,NCR,NCR,METRO MANILA,METRO MANILA,Caloocan City,Caloocan City,Private,14.651871,120.972692,valid,False,13,13801,1380100,1380100013
13086,La Consolacion College-Manila,NCR,NCR,METRO MANILA,METRO MANILA,MANILA,MANILA,Private,14.597243,120.9930466,valid,False,13,13806,1380600,1380600641
13251,La Consolacion College-Novaliches,NCR,NCR,METRO MANILA,METRO MANILA,Caloocan City,Caloocan City,Private,14.7435168,121.0275747,valid,False,13,13801,1380100,1380100168
13326,La Consolacion College-Pasig,NCR,NCR,METRO MANILA,METRO MANILA,CITY OF PASIG,CITY OF PASIG,Private,14.567165,121.0953589,valid,False,13,13812,1381200,1381200022
13394,La Consolacion College-Valenzuela,NCR,NCR,METRO MANILA,METRO MANILA,CITY OF VALENZUELA,CITY OF VALENZUELA,Private,14.6880962,120.9649169,valid,False,13,13816,1381600,1381600017
13415,La Verdad Christian College-Caloocan,NCR,NCR,METRO MANILA,METRO MANILA,Caloocan City,Caloocan City,Private,14.6577066,120.9966746,valid,False,13,13801,1380100,1380100138
13088,Lacson College,NCR,NCR,METRO MANILA,METRO MANILA,Pasay City,Pasay City,Private,14.5567286,120.9956867,valid,False,13,13811,1381100,1381100036
13361,Lady of Lourdes Hospital & Colleges of Caybiga,NCR,NCR,METRO MANILA,METRO MANILA,Caloocan City,Caloocan City,Private,14.7191659,121.0067088,valid,False,13,13801,1380100,1380100165
13293,Loral Douglas Woosley Bethany Colleges,NCR,NCR,METRO MANILA,METRO MANILA,CITY OF MAKATI,CITY OF MAKATI,Private,14.5562453,121.0038723,valid,False,13,13803,1380300,1380300015
13324,Lyceum of Alabang,NCR,NCR,METRO MANILA,METRO MANILA,CITY OF MUNTINLUPA,CITY OF MUNTINLUPA,Private,14.3730351,121.0474079,valid,False,13,13808,1380800,1380800008
13092,Lyceum of the Philippines University,NCR,NCR,METRO MANILA,METRO MANILA,MANILA,MANILA,Private,14.5915772,120.9777733,valid,False,13,13806,1380600,1380600658
,Makati Medical Center College,NCR,NCR,METRO MANILA,METRO MANILA,CITY OF MAKATI,CITY OF MAKATI,Private,14.5661746,121.0131046,valid,False,13,13803,1380300,1380300023
13439,Makati Science Technological Institute of the Philippines,NCR,NCR,METRO MANILA,METRO MANILA,Manila,Manila,Private,14.600897,121.0127397,valid,False,13,13806,1380600,1380600592
13097,Manila Adventist College,NCR,NCR,METRO MANILA,METRO MANILA,Pasay City,Pasay City,Private,14.5555351,120.9951149,valid,False,13,13811,1381100,1381100035
13296,Manila Business College Foundation,NCR,NCR,METRO MANILA,METRO MANILA,MANILA,MANILA,Private,14.612114,120.984072,valid,False,13,13806,1380600,1380600324
13094,Manila Central University,NCR,NCR,METRO MANILA,METRO MANILA,Caloocan City,Caloocan City,Private,14.6590004,120.9862475,valid,False,13,13801,1380100,1380100084
,Manila Law College,NCR,NCR,METRO MANILA,METRO MANILA,MANILA,MANILA,Private,14.60159,120.982942,valid,False,13,13806,1380600,1380600309
13098,Manila Theological College,NCR,NCR,METRO MANILA,METRO MANILA,Manila,Manila,Private,14.612114,120.984072,valid,False,13,13806,1380600,1380600324
13095,Manila Tytana Colleges,NCR,NCR,METRO MANILA,METRO MANILA,Pasay City,Pasay City,Private,14.540454,120.9881348,valid,False,13,13811,1381100,1381100076
13099,Manuel L. Quezon University,NCR,NCR,METRO MANILA,METRO MANILA,Manila,Manila,Private,14.5980429,120.9835048,valid,False,13,13806,1380600,1380600307
13100a,Mapua University-Makati,NCR,NCR,METRO MANILA,METRO MANILA,CITY OF MAKATI,CITY OF MAKATI,Private,14.5664614,121.0150212,valid,False,13,13803,1380300,1380300026
13100,Mapua University-Manila,NCR,NCR,METRO MANILA,METRO MANILA,MANILA,MANILA,Private,14.5904883,120.9779484,valid,False,13,13806,1380600,1380600658
13441,Marianum College,NCR,NCR,METRO MANILA,METRO MANILA,CITY OF MUNTINLUPA,CITY OF MUNTINLUPA,Private,14.378704,121.0534014,valid,False,13,13808,1380800,1380800008
13336,Marie-Bernarde College,NCR,NCR,METRO MANILA,METRO MANILA,Quezon City,Quezon City,Private,14.694437,121.0307923,valid,False,13,13813,1381300,1381300006
13101,Marikina Polytechnic College,NCR,NCR,METRO MANILA,METRO MANILA,CITY OF MARIKINA,CITY OF MARIKINA,Public SUC Main,14.6323331,121.0986601,valid,False,13,13807,1380700,1380700009
,Martinez Memorial College,NCR,NCR,METRO MANILA,METRO MANILA,Caloocan City,Caloocan City,Private,14.6385269,120.9757766,valid,False,13,13801,1380100,1380100032
13103,Mary Chiles College,NCR,NCR,METRO MANILA,METRO MANILA,Manila,Manila,Private,14.603641,120.989787,valid,False,13,13806,1380600,1380600404
13337,Mary the Queen College of Quezon City,NCR,NCR,METRO MANILA,METRO MANILA,Quezon City,Quezon City,Private,14.675289,121.082422,valid,False,13,13813,1381300,1381300066
13391,Meridian International College of Business and Arts,NCR,NCR,Metro Manila,Metro Manila,TAGUIG CITY,TAGUIG CITY,Private,14.5344448,121.0523568,valid,False,13,13815,1381500,1381500025
13359,Messiah College Foundation,NCR,NCR,METRO MANILA,METRO MANILA,CITY OF MANDALUYONG,CITY OF MANDALUYONG,Private,14.5824779,121.0613688,valid,False,13,13812,1381200,1381200019
13107,Metro Business College-Pasay,NCR,NCR,METRO MANILA,METRO MANILA,Pasay City,Pasay City,Private,14.537828,121.0010127,valid,False,13,13811,1381100,1381100097
13109,Metro Manila College,NCR,NCR,METRO MANILA,METRO MANILA,Quezon City,Quezon City,Private,14.726518,121.043589,valid,False,13,13813,1381300,1381300046
13442,Metropolitan Institute of Arts and Sciences,NCR,NCR,METRO MANILA,METRO MANILA,Caloocan City,Caloocan City,Private,14.7507731,121.0458083,valid,False,13,13801,1380100,1380100177
,Metropolitan Medical Center College of Arts Science and Technology,NCR,NCR,METRO MANILA,METRO MANILA,MANILA,MANILA,Private,14.5663083,120.992158,valid,False,13,13806,1380600,1380600708
13111,Miriam College,NCR,NCR,METRO MANILA,METRO MANILA,Quezon City,Quezon City,Private,14.6760413,121.0437003,valid,False,13,13813,1381300,1381300080
13112,Mother of Life Center,NCR,NCR,METRO MANILA,METRO MANILA,Quezon City,Quezon City,Private,14.7304528,121.0362337,valid,False,13,13813,1381300,1381300095
13115,NAMEI Polytechnic Institute,NCR,NCR,METRO MANILA,METRO MANILA,CITY OF MANDALUYONG,CITY OF MANDALUYONG,Private,14.5876299,121.0238316,valid,False,13,13805,1380500,1380500015
13448,NBS College,NCR,NCR,METRO MANILA,METRO MANILA,Quezon City,Quezon City,Private,14.6375985,121.0332973,valid,False,13,13813,1381300,1381300116
13459,NU Fairview,NCR,NCR,METRO MANILA,METRO MANILA,Quezon City,Quezon City,Private,14.7105218,121.0610032,valid,False,13,13813,1381300,1381300142
13311,National Christian Life College,NCR,NCR,METRO MANILA,METRO MANILA,CITY OF MARIKINA,CITY OF MARIKINA,Private,14.6386573,121.0983795,valid,False,13,13807,1380700,1380700010
13116,National College of Business and Arts-Cubao,NCR,NCR,METRO MANILA,METRO MANILA,Quezon City,Quezon City,Private,14.628481,121.067901,valid,False,13,13813,1381300,1381300062
13117,National College of Business and Arts-Fairview,NCR,NCR,METRO MANILA,METRO MANILA,Quezon City,Quezon City,Private,14.7038002,121.0690002,valid,False,13,13813,1381300,1381300041
,National Defense College,NCR,NCR,METRO MANILA,METRO MANILA,Quezon City,Quezon City,OGS,14.6092947,121.0679145,valid,False,13,13813,1381300,1381300019
13360,National Polytechnic College of Science and Technology,NCR,NCR,METRO MANILA,METRO MANILA,Quezon City,Quezon City,Private,14.7351933,121.0650352,valid,False,13,13813,1381300,1381300141
13121,National University,NCR,NCR,METRO MANILA,METRO MANILA,Manila,Manila,Private,14.6043164,120.9946287,valid,False,13,13806,1380600,1380600407
13122,Navotas Polytechnic College,NCR,NCR,METRO MANILA,METRO MANILA,CITY OF NAVOTAS,CITY OF NAVOTAS,Public LUC,14.6464328,120.9554901,valid,False,13,13809,1380900,1380900009
,New England College,NCR,NCR,METRO MANILA,METRO MANILA,Quezon City,Quezon City,Private,14.621921,121.00666,valid,False,13,13813,1381300,1381300032
13123,New Era University,NCR,NCR,METRO MANILA,METRO MANILA,Quezon City,Quezon City,Private,14.6638252,121.0580216,valid,False,13,13813,1381300,1381300023
13124,Olivarez College,NCR,NCR,METRO MANILA,METRO MANILA,CITY OF PARA�?AQUE,CITY OF PARA�?AQUE,Private,14.4788387,120.9962295,valid,False,13,13810,1381000,1381000004
13269,Our Lady of Fatima University-Quezon City,NCR,NCR,METRO MANILA,METRO MANILA,Quezon City,Quezon City,Private,14.7347868,121.0705857,valid,False,13,13813,1381300,1381300141
13125,Our Lady of Fatima University-Valenzuela,NCR,NCR,METRO MANILA,METRO MANILA,CITY OF VALENZUELA,CITY OF VALENZUELA,Private,14.6778026,120.9803044,valid,False,13,13816,1381600,1381600019
13316,Our Lady of Guadalupe Colleges,NCR,NCR,METRO MANILA,METRO MANILA,CITY OF MANDALUYONG,CITY OF MANDALUYONG,Private,14.577076,121.049644,valid,False,13,13805,1380500,1380500013
13126,Our Lady of Lourdes College,NCR,NCR,METRO MANILA,METRO MANILA,CITY OF VALENZUELA,CITY OF VALENZUELA,Private,14.6876379,120.9977856,valid,False,13,13816,1381600,1381600011
13270,Our Lady of Lourdes Technological College,NCR,NCR,METRO MANILA,METRO MANILA,Quezon City,Quezon City,Private,14.717661,121.036281,valid,False,13,13813,1381300,1381300070
13218,Our Lady of Perpetual Succor College,NCR,NCR,METRO MANILA,METRO MANILA,CITY OF MARIKINA,CITY OF MARIKINA,Private,14.647962,121.1122463,valid,False,13,13807,1380700,1380700003
13127,Our Lady of the Angels Seminary,NCR,NCR,METRO MANILA,METRO MANILA,Quezon City,Quezon City,Private,14.6981051,121.0384206,valid,False,13,13813,1381300,1381300006
13129,PACE Graduate School of Christian Education,NCR,NCR,METRO MANILA,METRO MANILA,Quezon City,Quezon City,Private,14.6760413,121.0437003,valid,False,13,13813,1381300,1381300080
13134,PATTS College of Aeronautics,NCR,NCR,METRO MANILA,METRO MANILA,CITY OF PARA�?AQUE,CITY OF PARA�?AQUE,Private,14.4747203,121.006465,valid,False,13,13810,1381000,1381000013
13152,PHILSIN College Foundation,NCR,NCR,METRO MANILA,METRO MANILA,Manila,Manila,Private,14.6011466,120.999438,valid,False,13,13806,1380600,1380600420
13153,PMI Colleges-Manila,NCR,NCR,METRO MANILA,METRO MANILA,MANILA,MANILA,Private,14.5996494,120.9785156,valid,False,13,13806,1380600,1380600290
13154,PMI Colleges-Quezon City,NCR,NCR,METRO MANILA,METRO MANILA,Quezon City,Quezon City,Private,14.6341129,121.0177614,valid,False,13,13813,1381300,1381300104
13376,Pacific InterContinental College,NCR,NCR,METRO MANILA,METRO MANILA,CITY OF LAS PI�?AS,CITY OF LAS PI�?AS,Private,14.41979,121.011068,valid,False,13,13802,1380200,1380200015
13347,Pamantasan ng Lungsod ng Marikina,NCR,NCR,METRO MANILA,METRO MANILA,CITY OF MARIKINA,CITY OF MARIKINA,Public LUC,14.6581998,121.1063754,valid,False,13,13807,1380700,1380700007
13130,Pamantasan ng Lungsod ng Maynila,NCR,NCR,METRO MANILA,METRO MANILA,Manila,Manila,Public LUC,14.58679,120.9761774,valid,False,13,13806,1380600,1380600657
13114,Pamantasan ng Lungsod ng Muntinlupa,NCR,NCR,METRO MANILA,METRO MANILA,CITY OF MUNTINLUPA,CITY OF MUNTINLUPA,Public LUC,14.3892443,121.025428,valid,False,13,13808,1380800,1380800005
13290,Pamantasan ng Lungsod ng Pasig,NCR,NCR,METRO MANILA,METRO MANILA,CITY OF PASIG,CITY OF PASIG,Public LUC,14.5619516,121.0744628,valid,False,13,13812,1381200,1381200008
,Pamantasan ng Lungsod ng Valenzuela,NCR,NCR,METRO MANILA,METRO MANILA,CITY OF VALENZUELA,CITY OF VALENZUELA,Public LUC,14.6938027,120.9690565,valid,False,13,13816,1381600,1381600017
,Para�?±aque City College,NCR,NCR,METRO MANILA,METRO MANILA,CITY OF PARA�?AQUE,CITY OF PARA�?AQUE,Public LUC,14.5748997,121.0046122,valid,False,13,13806,1380600,1380600785
13133,Pasig Catholic College,NCR,NCR,METRO MANILA,METRO MANILA,CITY OF PASIG,CITY OF PASIG,Private,14.5600259,121.0767141,valid,False,13,13812,1381200,1381200010
13358,Pateros Technological College,NCR,NCR,METRO MANILA,METRO MANILA,Pateros,Pateros,Public LUC,14.5527031,121.0691234,valid,False,13,13812,1381200,1381200004
13135,Perpetual Help College of Manila,NCR,NCR,METRO MANILA,METRO MANILA,Manila,Manila,Private,14.6126069,120.9879594,valid,False,13,13806,1380600,1380600470
13138,Philippine Christian University,NCR,NCR,METRO MANILA,METRO MANILA,MANILA,MANILA,Private,14.5760244,120.9886873,valid,False,13,13806,1380600,1380600694
13139,Philippine College of Criminology,NCR,NCR,METRO MANILA,METRO MANILA,MANILA,MANILA,Private,14.60159,120.982942,valid,False,13,13806,1380600,1380600309
13140,Philippine College of Health Sciences,NCR,NCR,METRO MANILA,METRO MANILA,Manila,Manila,Private,14.6031808,120.9854244,valid,False,13,13806,1380600,1380600395
13369,Philippine Cultural College,NCR,NCR,METRO MANILA,METRO MANILA,Quezon City,Quezon City,Private,14.6222592,121.0036094,valid,False,13,13813,1381300,1381300054
13137,Philippine Dominican Center of Institutional Studies,NCR,NCR,METRO MANILA,METRO MANILA,Quezon City,Quezon City,Private,14.6255708,121.0096618,valid,False,13,13813,1381300,1381300065
13142,Philippine Law School,NCR,NCR,METRO MANILA,METRO MANILA,Pasay City,Pasay City,Private,14.5558184,120.9960263,valid,False,13,13811,1381100,1381100036
,Philippine Merchant Marine School-Las Pi�?±as,NCR,NCR,METRO MANILA,METRO MANILA,CITY OF LAS PI�?AS,CITY OF LAS PI�?AS,Private,14.4375726,121.0035215,valid,False,13,13802,1380200,1380200008
13144,Philippine Merchant Marine School-Manila,NCR,NCR,METRO MANILA,METRO MANILA,MANILA,MANILA,Private,14.6067306,120.9819275,valid,False,13,13806,1380600,1380600335
13146,Philippine Normal University-Main,NCR,NCR,METRO MANILA,METRO MANILA,Manila,Manila,Public SUC Main,14.5870935,120.982819,valid,False,13,13806,1380600,1380600659
,Philippine Public Safety College,NCR,NCR,METRO MANILA,METRO MANILA,TAGUIG CITY,TAGUIG CITY,OGS,14.5570965,121.0551524,valid,False,13,13815,1381500,1381500034
,Philippine Rehabilitation Institute Foundation,NCR,NCR,METRO MANILA,METRO MANILA,Quezon City,Quezon City,Private,14.6285457,121.0039377,valid,False,13,13813,1381300,1381300065
13148,Philippine School of Business Administration-Manila,NCR,NCR,METRO MANILA,METRO MANILA,Manila,Manila,Private,14.603605,120.988567,valid,False,13,13806,1380600,1380600396
13147,Philippine School of Business Administration-Quezon City,NCR,NCR,METRO MANILA,METRO MANILA,Quezon City,Quezon City,Private,14.6295681,121.0731431,valid,False,13,13813,1381300,1381300055
13149,Philippine State College of Aeronautics-Main,NCR,NCR,METRO MANILA,METRO MANILA,Pasay City,Pasay City,Public SUC Main,14.526661,121.023652,valid,False,13,13811,1381100,1381100183
13155a,Polytechnic University of The Philippines-Open University,NCR,NCR,METRO MANILA,METRO MANILA,Manila,Manila,Public SUC Satellite,14.599178,121.0110186,valid,False,13,13806,1380600,1380600630
13155,Polytechnic University of the Philippines,NCR,NCR,METRO MANILA,METRO MANILA,Manila,Manila,Public SUC Main,14.5995124,120.9842195,valid,False,13,13806,1380600,1380600307
,Polytechnic University of the Philippines-Para�?±aque Campus,NCR,NCR,METRO MANILA,METRO MANILA,CITY OF PARA�?AQUE,CITY OF PARA�?AQUE,Public SUC Satellite,14.5004818,120.9948436,valid,False,13,13810,1381000,1381000005
13323,Polytechnic University of the Philippines-Quezon City Campus,NCR,NCR,METRO MANILA,METRO MANILA,MANILA,MANILA,Public SUC Satellite,14.6997992,121.0820793,valid,False,13,13813,1381300,1381300022
13155i,Polytechnic University of the Philippines-San Juan Campus,NCR,NCR,METRO MANILA,METRO MANILA,CITY OF SAN JUAN,CITY OF SAN JUAN,Public SUC Satellite,14.5943591,121.0401643,valid,False,13,13814,1381400,1381400001
13156,Polytechnic University of the Philippines-Taguig,NCR,NCR,Metro Manila,Metro Manila,TAGUIG CITY,TAGUIG CITY,Public SUC Satellite,14.4887593,121.0511705,valid,False,13,13815,1381500,1381500019
13346,Quezon City University,NCR,NCR,METRO MANILA,METRO MANILA,Quezon City,Quezon City,Public LUC,14.6999155,121.0325339,valid,False,13,13813,1381300,1381300097
13427,Recoletos School of Theology,NCR,NCR,METRO MANILA,METRO MANILA,Quezon City,Quezon City,Private,14.6783134,121.0608036,valid,False,13,13813,1381300,1381300080
,Regis Marie College,NCR,NCR,METRO MANILA,METRO MANILA,CITY OF PARA�?AQUE,CITY OF PARA�?AQUE,Private,14.4767496,121.0015305,valid,False,13,13810,1381000,1381000004
13160,Republican College,NCR,NCR,METRO MANILA,METRO MANILA,Quezon City,Quezon City,Private,14.6159172,121.0636975,valid,False,13,13813,1381300,1381300102
13161,Rizal Technological University,NCR,NCR,METRO MANILA,METRO MANILA,CITY OF MANDALUYONG,CITY OF MANDALUYONG,Public SUC Main,14.57459,121.042304,valid,False,13,13805,1380500,1380500016
,Rizal Technological University-Pasig,NCR,NCR,METRO MANILA,METRO MANILA,CITY OF PASIG,CITY OF PASIG,Public SUC Satellite,14.5730514,121.0999984,valid,False,13,13812,1381200,1381200012
13325,Rogationist Seminary College of Philosophy,NCR,NCR,METRO MANILA,METRO MANILA,CITY OF PARA�?AQUE,CITY OF PARA�?AQUE,Private,14.5013273,121.0246668,valid,False,13,13810,1381000,1381000010
,Romarinda International College,NCR,NCR,METRO MANILA,METRO MANILA,Quezon City,Quezon City,Private,14.6794688,121.0461582,valid,False,13,13813,1381300,1381300080
13162,Roosevelt College-Marikina,NCR,NCR,METRO MANILA,METRO MANILA,CITY OF MARIKINA,CITY OF MARIKINA,Private,14.6486812,121.0984813,valid,False,13,13807,1380700,1380700005
13233,STI College Pasay-EDSA,NCR,NCR,METRO MANILA,METRO MANILA,MANILA,MANILA,Private,14.5377512,121.0013809,valid,False,13,13811,1381100,1381100097
13223,STI College-Alabang,NCR,NCR,METRO MANILA,METRO MANILA,CITY OF MUNTINLUPA,CITY OF MUNTINLUPA,Private,14.4196875,121.0469399,valid,False,13,13808,1380800,1380800001
13227,STI College-Caloocan,NCR,NCR,METRO MANILA,METRO MANILA,Caloocan City,Caloocan City,Private,14.657793,120.9768921,valid,False,13,13801,1380100,1380100080
13224,STI College-Cubao,NCR,NCR,METRO MANILA,METRO MANILA,Quezon City,Quezon City,Private,14.6163662,121.0539758,valid,False,13,13813,1381300,1381300115
13232,STI College-Fairview,NCR,NCR,METRO MANILA,METRO MANILA,Quezon City,Quezon City,Private,14.7160003,121.0614864,valid,False,13,13813,1381300,1381300142
13226,STI College-Global City,NCR,NCR,Metro Manila,Metro Manila,TAGUIG CITY,TAGUIG CITY,Private,14.55235,121.0560769,valid,False,13,13815,1381500,1381500034
,STI College-Las Pi�?±as,NCR,NCR,METRO MANILA,METRO MANILA,CITY OF LAS PI�?AS,CITY OF LAS PI�?AS,Private,14.4514205,120.9791933,valid,False,13,13802,1380200,1380200014
13294,STI College-Marikina,NCR,NCR,METRO MANILA,METRO MANILA,CITY OF MARIKINA,CITY OF MARIKINA,Private,14.650117,121.105867,valid,False,13,13807,1380700,1380700003
,STI College-Mu�?±oz EDSA,NCR,NCR,METRO MANILA,METRO MANILA,Quezon City,Quezon City,Private,14.6163662,121.0539758,valid,False,13,13813,1381300,1381300115
13231,STI College-Novaliches,NCR,NCR,METRO MANILA,METRO MANILA,Quezon City,Quezon City,Private,14.704365,121.0367497,valid,False,13,13813,1381300,1381300097
13225,STI College-Shaw,NCR,NCR,METRO MANILA,METRO MANILA,CITY OF PASIG,CITY OF PASIG,Private,14.5766482,121.0592161,valid,False,13,13812,1381200,1381200019
13035,Saint Anthony Mary Claret College,NCR,NCR,METRO MANILA,METRO MANILA,Quezon City,Quezon City,Private,14.666715,121.0486194,valid,False,13,13813,1381300,1381300025
13242,Saint Bernadette College of Alabang,NCR,NCR,METRO MANILA,METRO MANILA,CITY OF MUNTINLUPA,CITY OF MUNTINLUPA,Private,14.4251692,121.0469396,valid,False,13,13808,1380800,1380800001
13166,Saint Francis of Assisi College,NCR,NCR,METRO MANILA,METRO MANILA,CITY OF LAS PI�?AS,CITY OF LAS PI�?AS,Private,14.4440024,121.0005121,valid,False,13,13802,1380200,1380200018
13172,Saint Rita College-Manila,NCR,NCR,METRO MANILA,METRO MANILA,Manila,Manila,Private,14.59948,120.98966,valid,False,13,13806,1380600,1380600390
13177,Samson College of Science and Technology-Quezon City,NCR,NCR,METRO MANILA,METRO MANILA,Quezon City,Quezon City,Private,14.616915,121.051965,valid,False,13,13813,1381300,1381300101
13220,San Beda College-Alabang,NCR,NCR,METRO MANILA,METRO MANILA,CITY OF MUNTINLUPA,CITY OF MUNTINLUPA,Private,14.4330885,121.0255363,valid,False,13,13808,1380800,1380800004
,San Beda University,NCR,NCR,METRO MANILA,METRO MANILA,MANILA,MANILA,Private,14.5997811,120.992938,valid,False,13,13806,1380600,1380600638
13179,San Carlos Seminary,NCR,NCR,METRO MANILA,METRO MANILA,CITY OF MAKATI,CITY OF MAKATI,Private,14.5635554,121.0434437,valid,False,13,13803,1380300,1380300010
13180,San Juan de Dios Educational Foundation,NCR,NCR,METRO MANILA,METRO MANILA,Pasay City,Pasay City,Private,14.5378892,120.9930321,valid,False,13,13811,1381100,1381100076
13181,San Sebastian College-Recoletos,NCR,NCR,METRO MANILA,METRO MANILA,Manila,Manila,Private,14.6007856,120.9898838,valid,False,13,13806,1380600,1380600390
13183,Santa Isabel College of Manila,NCR,NCR,METRO MANILA,METRO MANILA,Manila,Manila,Private,14.5856083,120.9838713,valid,False,13,13806,1380600,1380600960
04478,Sapphire International Aviation Academy,NCR,NCR,METRO MANILA,METRO MANILA,CITY OF PARA�?AQUE,CITY OF PARA�?AQUE,Private,14.4702223,121.009659,valid,True,13,13810,1381000,1381000013
13409,School of Fashion and the Arts,NCR,NCR,METRO MANILA,METRO MANILA,CITY OF MAKATI,CITY OF MAKATI,Private,14.5592746,121.030058,valid,False,13,13803,1380300,1380300030
