school_id,school_name,latitude,longitude,coord_status,coord_rejection_reason,region,division,province,municipality,barangay,esc_participating,shsvp_participating,jdvp_participating
400000,"REESFI EDUCATION CENTER, INC.",10.008507,125.577687,valid,,CARAGA,Dinagat Island,DINAGAT ISLANDS,SAN JOSE (Capital),AURELIO,0,0,0
400001,"St. Andrew Academy of Bacarra, Inc.",18.25099,120.61212,valid,,Region I,Ilocos Norte,ILOCOS NORTE,BACARRA,SANTA RITA (POB.),1,1,0
400002,"Badoc Junior College, Inc.",17.92755,120.47674,valid,,Region I,Ilocos Norte,ILOCOS NORTE,BADOC,CANAAN (POB.),1,1,0
400003,"IGAMA Colleges Foundation, Inc.",14.57929,121.06494,valid,,Region I,Ilocos Norte,ILOCOS NORTE,BADOC,GARRETA (POB.),1,1,1
400004,"Juan Luna Memorial Academy, Inc.",17.92804,120.47454,valid,,Region I,Ilocos Norte,ILOCOS NORTE,BADOC,ALOGOOG,1,1,0
400005,St. Elizabeth Elementary School,17.92759,120.4753,valid,,Region I,Ilocos Norte,ILOCOS NORTE,BADOC,GARRETA (POB.),0,0,0
400006,"St. Lawrence the Deacon Academy of Bangui, Ilocos Norte, Inc.",18.5368275,120.7655268,valid,,Region I,Ilocos Norte,ILOCOS NORTE,BANGUI,SAN LORENZO (POB.),1,1,1
400007,"Batac Institute, Inc.",18.0537871583226,120.56602170017,valid,,Region I,Batac City,ILOCOS NORTE,CITY OF BATAC,VALDEZ POB. (CAOAYAN),1,1,0
400008,Batac Junior College,18.05532,120.5653,valid,,Region I,Batac City,ILOCOS NORTE,CITY OF BATAC,VALDEZ POB. (CAOAYAN),1,1,0
400009,Eureka High School,18.0568,120.5628,valid,,Region I,Batac City,ILOCOS NORTE,CITY OF BATAC,CAUNAYAN (POB.),0,0,0
400010,Immaculate Concepcion Academy,18.05457,120.5644,valid,,Region I,Batac City,ILOCOS NORTE,CITY OF BATAC,VALDEZ POB. (CAOAYAN),1,1,0
400011,"Dingras Faith Academy, Inc.",18.104694,120.698502,valid,,Region I,Ilocos Norte,ILOCOS NORTE,DINGRAS,MADAMBA (POB.),1,0,0
400012,"St. Joseph Institute of Dingras, Inc.",18.1034579,120.6987066,valid,,Region I,Ilocos Norte,ILOCOS NORTE,DINGRAS,MADAMBA (POB.),1,1,0
400013,Banna Academy Inc.,17.9827694,120.6555925,valid,,Region I,Ilocos Norte,ILOCOS NORTE,BANNA (ESPIRITU),VALENCIANO (POB.),1,1,0
400014,St. Gabriel Catholic School,,,no_coords,no_submission,Region I,Ilocos Norte,ILOCOS NORTE,NUEVA ERA,POBLACION,0,0,0
400015,St. Jude High School of Pagudpud Ilocos Norte Inc,18.56314,120.78684,valid,,Region I,Ilocos Norte,ILOCOS NORTE,PAGUDPUD,POBLACION  2,1,1,0
400016,"Paoay North Institute, Inc.",18.0608,120.52272,valid,,Region I,Ilocos Norte,ILOCOS NORTE,PAOAY,CABANGARAN,1,1,0
400017,"Pasuquin High School of Ilocos Norte,Inc.",18.3319057,120.6176694,fixed_swap,,Region I,Ilocos Norte,ILOCOS NORTE,PASUQUIN,POBLACION 3,1,1,0
400018,"St. James Academy of PasuquinIlocos Norte, Inc.",,,no_coords,invalid,Region I,Ilocos Norte,ILOCOS NORTE,PASUQUIN,POBLACION 2,1,1,0
400019,Roosevelt High School of Piddig Inc.,18.163109,120.718248,valid,,Region I,Ilocos Norte,ILOCOS NORTE,PIDDIG,LOING (POB.),1,1,0
400020,"Saint Anne Academy of Piddig, Ilocos Norte, Inc.",18.1656263,120.7170606,valid,,Region I,Ilocos Norte,ILOCOS NORTE,PIDDIG,CABAROAN (POB.),1,1,0
400021,Pinili Institute,17.9518837,120.5265738,valid,,Region I,Ilocos Norte,ILOCOS NORTE,PINILI,VALBUENA (POB.),1,1,0
400022,"Sta. Rosa Academy of San Nicolas Ilocos Norte, Inc.",18.333,120.433,valid,,Region I,Ilocos Norte,ILOCOS NORTE,SAN NICOLAS,SAN ILDEFONSO (POB.),1,1,0
400023,"Gov. Roque B. Ablan Sr. Mem. Academy, Inc.",18.09675,120.77076,valid,,Region I,Ilocos Norte,ILOCOS NORTE,SOLSONA,JUAN (POB.),1,1,0
400024,Faith Bible Baptist Academy,18.10219,120.78097,valid,,Region I,Ilocos Norte,ILOCOS NORTE,SOLSONA,JUAN (POB.),0,0,0
400025,"Saint Nicholas Academy of Vintar, Inc.",18.2295787,120.6500728,valid,,Region I,Ilocos Norte,ILOCOS NORTE,VINTAR,SAN NICOLAS (POB.),1,1,0
400026,"Vintar Academy, Inc.",18.2284689,120.6487485,valid,,Region I,Ilocos Norte,ILOCOS NORTE,VINTAR,SAN NICOLAS (POB.),1,0,0
400027,"St. Paul College of Ilocos Sur, Inc.",,,no_coords,no_submission,Region I,Ilocos Sur,ILOCOS SUR,BANTAY,BARANGAY 4 (POB.),0,0,0
400028,"Holy Name High School Burgos in Sur, Inc.",17.31766,120.5099,valid,,Region I,Ilocos Sur,ILOCOS SUR,BURGOS,LUNA,1,1,0
400029,Cabugao Institute Inc.,17.7894,120.4586,valid,,Region I,Ilocos Sur,ILOCOS SUR,CABUGAO,BONIFACIO (POB.),1,1,0
400030,San Andres Adventist Elementary School,14.0,121.0,valid,,Region I,Candon City,ILOCOS SUR,CITY OF CANDON,SAN ANDRES,0,0,0
400031,"St. Joseph's Institute, Inc.",,,no_coords,invalid,Region I,Candon City,ILOCOS SUR,CITY OF CANDON,SAN JUAN (POB.),1,1,0
400032,"St. Agnes School, Inc.",16.991801,120.737688,valid,,Region I,Ilocos Sur,ILOCOS SUR,CERVANTES,CONCEPCION (POB.),1,1,0
400033,"Adventist School Galimuyod Campus, Inc.",17.0,120.0,valid,,Region I,Ilocos Sur,ILOCOS SUR,GALIMUYOD,BIDBIDAY,0,0,0
400035,"Concepcion Adventist Academy of the Seventh-Day Adventist Church, Inc.",17.128077,120.606736,valid,,Region I,Ilocos Sur,ILOCOS SUR,GREGORIO DEL PILAR (CONCEPCION),CONCEPCION,1,1,0
400036,The Magsingal Institute of Secondary Education Incorporated,17.6887906,120.42689,valid,,Region I,Ilocos Sur,ILOCOS SUR,MAGSINGAL,SAN LUCAS (POB.),1,0,0
400037,"Saint  William's Institute, Inc.",17.68448,120.4251,valid,,Region I,Ilocos Sur,ILOCOS SUR,MAGSINGAL,SAN RAMON (POB.),1,1,0
400039,"Narvacan Catholic School, Inc.",17.418093,120.476498,valid,,Region I,Ilocos Sur,ILOCOS SUR,NARVACAN,SANTA LUCIA (POB.),1,1,0
400040,"Tirad View Academy of Seventh-Day Adventists, Inc.",17.13427,120.65553,valid,,Region I,Ilocos Sur,ILOCOS SUR,QUIRINO (ANGKAKI),CAYUS,1,1,0
400043,"San Juan Institute, Ilocos Sur, Inc.",17.742881,120.456421,valid,,Region I,Ilocos Sur,ILOCOS SUR,SAN JUAN (LAPOG),LIRA (POB.),1,0,0
400044,"Santa High School,Inc.",17.4868631,120.4328514,valid,,Region I,Ilocos Sur,ILOCOS SUR,SANTA,QUIRINO (POB.),1,1,0
400045,"Sta. Catalina High School, Inc.",17.5910555,120.3642402,valid,,Region I,Ilocos Sur,ILOCOS SUR,SANTA CATALINA,POBLACION,1,1,0
400046,Our Lady of Guadalupe Academy (Sevilla),14.57929,121.06494,valid,,Region I,Ilocos Sur,ILOCOS SUR,SANTA CRUZ,SEVILLA,1,1,0
400047,Pascual Rivera Pimentel Memorial Academy,17.08352,120.4523,valid,,Region I,Ilocos Sur,ILOCOS SUR,SANTA CRUZ,POBLACION SUR,1,1,0
400048,"San Jose High School, Inc.",17.096812,120.495491,valid,,Region I,Ilocos Sur,ILOCOS SUR,SANTA CRUZ,SAN JOSE,1,1,0
400049,"Sta. Cruz Institute, Inc.",,,no_coords,invalid,Region I,Ilocos Sur,ILOCOS SUR,SANTA CRUZ,POBLACION SUR,1,1,0
400050,"Sta. Lucia Academy, Inc.",17.12144,120.449811,valid,,Region I,Ilocos Sur,ILOCOS SUR,SANTA LUCIA,BARANGOBONG (POB.),1,1,0
400051,"Santa Lucia Catholic School, Inc.",17.115783,120.4469612,valid,,Region I,Ilocos Sur,ILOCOS SUR,SANTA LUCIA,BURGOS (POB.),1,1,0
400052,"St. Mary's College Sta. Maria, Ilocos Sur, Inc.",17.3666697,120.4822285,valid,,Region I,Ilocos Sur,ILOCOS SUR,SANTA MARIA,POBLACION SUR,1,1,0
400053,"Santiago Catholic School (SCS), Inc.",17.2938,120.4464,valid,,Region I,Ilocos Sur,ILOCOS SUR,SANTIAGO,POBLACION NORTE,1,1,0
400054,Santiago Institute,17.294779,120.445586,valid,,Region I,Ilocos Sur,ILOCOS SUR,SANTIAGO,POBLACION NORTE,1,1,0
400055,"Benito Soliven Academy, Inc.",17.637238,120.410069,valid,,Region I,Ilocos Sur,ILOCOS SUR,SANTO DOMINGO,NALASIN,1,1,0
400056,St.  Augustine's School Inc.,16.93353,120.44419,valid,,Region I,Ilocos Sur,ILOCOS SUR,TAGUDIN,RIZAL (POB.),1,1,0
400057,"Adventist School Tagudin Campus, Inc.",16.931714,120.447888,valid,,Region I,Ilocos Sur,ILOCOS SUR,TAGUDIN,DEL PILAR (POB.),0,0,0
400059,"Calvary Baptist Academy, Inc.",17.57442,120.37304,valid,,Region I,Vigan City,ILOCOS SUR,CITY OF VIGAN (Capital),AYUSAN NORTE,0,0,0
400061,Divine Word College of Vigan,17.57479,120.38968,valid,,Region I,Vigan City,ILOCOS SUR,CITY OF VIGAN (Capital),BARANGAY II (POB.),1,1,0
400062,"Immaculate Conception Minor Seminary, Inc.",17.5621555,120.3706272,valid,,Region I,Vigan City,ILOCOS SUR,CITY OF VIGAN (Capital),AYUSAN SUR,1,1,0
400063,Vigan City Nan Chong School Incorporated,17.575,120.88,valid,,Region I,Vigan City,ILOCOS SUR,CITY OF VIGAN (Capital),BARANGAY III (POB.),0,0,0
400064,Adventist School La Ciudad Fernandina Inc.,17.573557,120.39255,valid,,Region I,Vigan City,ILOCOS SUR,CITY OF VIGAN (Capital),CAPANGPANGAN,0,0,0
400067,Agoo Kiddie Special School,16.3323,120.3775,valid,,Region I,La Union,LA UNION,AGOO,CONSOLACION (POB.),1,1,0
400068,"Agoo Montessori Learning Center & High School, Inc.",14.57929,121.06494,valid,,Region I,La Union,LA UNION,AGOO,SAN ANTONIO,1,1,0
400069,Southville Academy of Malolos,14.846381,120.808296,valid,,Region III,Malolos City,BULACAN,CITY OF MALOLOS  (Capital),CAINGIN,0,0,0
400070,"St. Mary's Academy - Agoo, La union, Inc.",16.3233662188914,120.367633396319,valid,,Region I,La Union,LA UNION,AGOO,CONSOLACION (POB.),1,1,0
400071,"Agoo UCCP-Nursery-Kindergarten School, Inc.",16.32176,120.35414,valid,,Region I,La Union,LA UNION,AGOO,SANTA BARBARA (POB.),1,0,0
400072,"ASSATT CHRISTIAN SCHOOL, INC.",16.36431,120.35808,valid,,Region I,La Union,LA UNION,ARINGAY,SAN EUGENIO,1,1,0
400073,Notre Dame Institute,16.39491,120.35504,valid,,Region I,La Union,LA UNION,ARINGAY,POBLACION,1,1,0
400074,"St. Barachiel Special Science School, Inc.",16.39716,120.35576,valid,,Region I,La Union,LA UNION,ARINGAY,SAN BENITO SUR,0,0,0
400075,"Lord of Zion Divine School, Inc.",16.43166598,120.20377747,valid,,Region I,La Union,LA UNION,BACNOTAN,POBLACION,1,1,0
400076,"St. Anthony Montessori Educational Network, Inc.",,,no_coords,invalid,Region I,La Union,LA UNION,BACNOTAN,POBLACION,1,1,0
400077,ABE International Business College - La Union Inc.,,,no_coords,no_submission,Region I,La Union,LA UNION,BACNOTAN,BARORO,0,0,0
400078,Stella Maris Academy,16.763399,120.33787,valid,,Region I,La Union,LA UNION,BACNOTAN,QUIRINO,1,1,0
400080,Osias Educational Foundation,16.819689571,120.409516662694,valid,,Region I,La Union,LA UNION,BALAOAN,DR. CAMILO OSIAS POB. (CABUAAN ESTE),1,1,1
400081,San Nicolas Academy,16.82152,120.40388,valid,,Region I,La Union,LA UNION,BALAOAN,DR. CAMILO OSIAS POB. (CABUAAN ESTE),1,1,0
400082,"Saint Christopher Academy of Bangar, La Union, Inc.",16.89302,120.42367,valid,,Region I,La Union,LA UNION,BANGAR,CENTRAL EAST NO. 1 (POB.),1,1,0
400084,"La Union Colleges of Science and Technology, Inc.",16.5256409278082,120.327306291132,valid,,Region I,La Union,LA UNION,BAUANG,CENTRAL WEST (POB.),1,1,1
400085,Sacred Heart School,16.52567,120.33074,valid,,Region I,La Union,LA UNION,BAUANG,CENTRAL EAST (POB.),1,1,0
400086,"St. Anthony Montessori Educational Network, Inc. (Bauang)",,,no_coords,invalid,Region I,La Union,LA UNION,BAUANG,CENTRAL EAST (POB.),1,1,0
400087,Sts. Peter and Paul Learning Center,16.5258036255585,120.330719108098,valid,,Region I,La Union,LA UNION,BAUANG,CENTRAL EAST (POB.),0,0,0
400088,UCCP Nursery Kindergarten School (Bauang),14.0,121.0,valid,,Region I,La Union,LA UNION,BAUANG,CENTRAL EAST (POB.),0,0,0
400089,"Jesus Cares Christian Academy of Caba, La Union, Inc.",16.43606,120.34389,valid,,Region I,La Union,LA UNION,CABA,POBLACION NORTE,0,0,0
400090,"La Union Standard Academy, Inc.",16.42332,120.34946,valid,,Region I,La Union,LA UNION,CABA,GANA,1,1,0
400091,St. John the Baptist Learning Center,16.4360472,120.3430987,valid,,Region I,La Union,LA UNION,CABA,POBLACION SUR,1,0,0
400092,Santa Catalina Academy,16.85587,120.37874,valid,,Region I,La Union,LA UNION,LUNA,VICTORIA (POB.),1,1,0
400094,"Naguilian Learning Center, Inc",16.530722,120.397647,valid,,Region I,La Union,LA UNION,NAGUILIAN,IMELDA,0,0,0
400095,"St. Augustine School of Naguilian, Inc.",16.53074,120.39276,valid,,Region I,La Union,LA UNION,NAGUILIAN,NATIVIDAD (POB.),0,0,0
400097,Pugo Catholic School,16.3212,120.4656,valid,,Region I,La Union,LA UNION,PUGO,TAVORA EAST,1,1,0
400098,"Saint Mary's Academy of Rosario, Inc.",16.230239,120.488541,valid,,Region I,La Union,LA UNION,ROSARIO,POBLACION EAST,1,1,0
400100,Immaculate Conception School of Malolos - Stella Maris,14.7604841,120.813247,valid,,Region III,Malolos City,BULACAN,CITY OF MALOLOS  (Capital),PAMARAWAN,0,0,0
400101,"BHC Educational Institution, Inc.",16.590079,120.320419,valid,,Region I,San Fernando City,LA UNION,CITY OF SAN FERNANDO (Capital),SEVILLA,1,1,0
400102,Capitol Church Nursery Kindergarten School,16.614574,120.317108,valid,,Region I,San Fernando City,LA UNION,CITY OF SAN FERNANDO (Capital),BARANGAY II (POB.),0,0,0
400103,"Christ the King College - San Fernando City, La Union Inc.",16.60963,120.3173,valid,,Region I,San Fernando City,LA UNION,CITY OF SAN FERNANDO (Capital),BARANGAY II (POB.),1,1,0
400104,CICOSAT Colleges Inc.,16.74647,120.3111,valid,,Region I,San Fernando City,LA UNION,CITY OF SAN FERNANDO (Capital),LINGSAT,1,1,0
400105,Diocesan Seminary of the Heart of Jesus,16.586403,120.307711,valid,,Region I,San Fernando City,LA UNION,CITY OF SAN FERNANDO (Capital),SAN VICENTE,1,1,0
400106,"Felkris Academy, Inc.",16.645772,120.310664,valid,,Region I,San Fernando City,LA UNION,CITY OF SAN FERNANDO (Capital),LINGSAT,1,1,0
400107,"Gifted Learning Centre, Inc.",16.61445,120.3143,valid,,Region I,San Fernando City,LA UNION,CITY OF SAN FERNANDO (Capital),CATBANGEN,1,1,0
400108,"Adventist School City of San Fernando La Union, Inc.",,,no_coords,out_of_bounds,Region I,San Fernando City,LA UNION,CITY OF SAN FERNANDO (Capital),TANQUI,0,0,0
400109,La Union Bible Baptist Academy,16.6194,120.3286,valid,,Region I,San Fernando City,LA UNION,CITY OF SAN FERNANDO (Capital),CABAROAN (NEGRO),0,0,0
400110,La Union Cultural Institute,14.57929,121.06494,valid,,Region I,San Fernando City,LA UNION,CITY OF SAN FERNANDO (Capital),BARANGAY I (POB.),1,1,0
400112,Lorma Grade School/Lorma Colleges Special Science HS,16.66179,120.32779,valid,,Region I,La Union,LA UNION,SAN JUAN,URBIZTONDO,1,1,1
400113,San Pablo Educational Center,14.84262,120.8451,valid,,Region III,Malolos City,BULACAN,CITY OF MALOLOS  (Capital),SAN PABLO,0,0,0
400115,Saint Louis College Elementary / High School,16.636845,120.312723,valid,,Region I,San Fernando City,LA UNION,CITY OF SAN FERNANDO (Capital),CARLATAN,1,1,0
400117,St. Jude Montessori Educational Center of La Union,14.57929,121.06494,valid,,Region I,San Fernando City,LA UNION,CITY OF SAN FERNANDO (Capital),CATBANGEN,0,0,0
400118,St. William Parish Nursery Kindergarten School,16.61563,120.31751,valid,,Region I,San Fernando City,LA UNION,CITY OF SAN FERNANDO (Capital),BARANGAY II (POB.),0,0,0
400119,Union Christian College,12.879721,121.774017,valid,,Region I,San Fernando City,LA UNION,CITY OF SAN FERNANDO (Capital),BARANGAY II (POB.),1,1,0
400120,Vineyard Christian Academy,16.624236,120.316161,valid,,Region I,San Fernando City,LA UNION,CITY OF SAN FERNANDO (Capital),PAGDARAOAN,1,0,0
400121,St. Gabriel The Archangel High School Inc.,16.67321,120.39982,valid,,Region I,La Union,LA UNION,SAN GABRIEL,POBLACION,1,0,0
400122,Holy Angels Montessori and Learning Center,14.57929,121.06494,valid,,Region I,La Union,LA UNION,SAN JUAN,ILI NORTE (POB.),0,0,0
400123,Sacred Heart Learning Center,16.2537,120.4,valid,,Region I,La Union,LA UNION,SANTO TOMAS,NAMONITAN,0,0,0
400124,St. Mary of the Sea Academy,16.2809,120.3804,valid,,Region I,La Union,LA UNION,SANTO TOMAS,POBLACION,1,1,0
400125,San Alberto Magno Academy,16.3492117093836,120.412425111687,valid,,Region I,La Union,LA UNION,TUBAO,POBLACION,1,1,0
400126,St. Isidore School of Tubao,,,no_coords,no_submission,Region I,La Union,LA UNION,TUBAO,POBLACION,0,0,0
400127,Jesus Christian Ministry School Inc.,14.867781,120.823192,valid,,Region III,Malolos City,BULACAN,CITY OF MALOLOS  (Capital),MOJON,0,0,0
400128,Aguilar Catholic School Inc.,15.889349,120.239262,valid,,Region I,"Pangasinan I, Lingayen",PANGASINAN,AGUILAR,POBLACION,1,1,0
400129,"Zaratan Educational Institute, Inc.",15.8890372,120.2384199,valid,,Region I,"Pangasinan I, Lingayen",PANGASINAN,AGUILAR,POGOMBOA,1,1,0
400130,Adventist School of Western Pangasinan Inc.,16.16182,119.98217,valid,,Region I,Alaminos City,PANGASINAN,CITY OF ALAMINOS,POBLACION,0,0,0
400134,"Esperanza De Leon Ramos (ELR) School, Inc.",16.1534453,119.98213,valid,,Region I,Alaminos City,PANGASINAN,CITY OF ALAMINOS,PALAMIS,0,0,0
400135,Shekinah Grace School,,,no_coords,invalid,Region I,Alaminos City,PANGASINAN,CITY OF ALAMINOS,PALAMIS,0,0,0
400136,"Colegio San Jose de Alaminos, Inc.",16.156022,119.978546,valid,,Region I,Alaminos City,PANGASINAN,CITY OF ALAMINOS,POBLACION,1,1,0
400138,The Great Plebeian College,16.1588086410124,119.980122006462,valid,,Region I,Alaminos City,PANGASINAN,CITY OF ALAMINOS,POBLACION,1,1,0
400139,"Asbury College, Inc.",16.28806,119.95401,valid,,Region I,"Pangasinan I, Lingayen",PANGASINAN,ANDA,POBLACION,1,1,0
400140,St. Nicholas Catholic School of Anda,16.29016,119.94847,valid,,Region I,"Pangasinan I, Lingayen",PANGASINAN,ANDA,POBLACION,1,1,0
400142,Mary Help of Christians Catholic School,15.84905,120.39786,valid,,Region I,"Pangasinan I, Lingayen",PANGASINAN,BASISTA,NAVATAT,1,1,0
400144,"Mother Goose Special School System, Inc.",15.81426,120.45367,valid,,Region I,"Pangasinan I, Lingayen",PANGASINAN,BAYAMBANG,POBLACION SUR,0,0,0
400145,"ST. VINCENT'S CATHOLIC SCHOOL OF BAYAMBANG, INC.",,,no_coords,invalid,Region I,"Pangasinan I, Lingayen",PANGASINAN,BAYAMBANG,POBLACION SUR,1,1,0
400146,"Binmaley Catholic School, Inc.",16.03131,120.26841,valid,,Region I,"Pangasinan I, Lingayen",PANGASINAN,BINMALEY,POBLACION,1,1,0
400148,"Food for Hungry Minds School, Inc.",14.84013,120.84905,valid,,Region III,Malolos City,BULACAN,CITY OF MALOLOS  (Capital),BUNGAHAN,0,0,0
400149,"Mary Help of Christians Seminary, Inc.",16.0326,120.2702,valid,,Region I,"Pangasinan I, Lingayen",PANGASINAN,BINMALEY,POBLACION,1,1,0
400151,"Señor Santiago Learning Center of Bolinao Pangasinan, Inc.",16.38818,119.8936,valid,,Region I,"Pangasinan I, Lingayen",PANGASINAN,BOLINAO,GERMINAL (POB.),1,1,0
400153,St. Andrew Catholic School,14.57929,121.06494,valid,,Region I,"Pangasinan I, Lingayen",PANGASINAN,BUGALLON,POBLACION,1,0,0
400154,Calasiao Educational Center,16.00597,120.35439,valid,,Region I,"Pangasinan I, Lingayen",PANGASINAN,CALASIAO,NALSIAN,1,0,0
400155,Precious Minds Montessori and High School,16.0104913,120.3531346,valid,,Region I,"Pangasinan I, Lingayen",PANGASINAN,CALASIAO,POBLACION WEST,1,0,0
400156,"Dasol Catholic School,Inc",,,no_coords,out_of_bounds,Region I,"Pangasinan I, Lingayen",PANGASINAN,DASOL,POBLACION,1,1,1
400157,"Don Marcelo Jimenez Memorial Polytechnic Institute, Inc.",16.055545,119.86712,valid,,Region I,"Pangasinan I, Lingayen",PANGASINAN,DASOL,POBLACION,1,1,0
400158,"St. John's Institute, Inc.",15.82487,119.90425,valid,,Region I,"Pangasinan I, Lingayen",PANGASINAN,INFANTA,POBLACION,1,1,0
400159,St. Columban's School Inc.,16.0262618,120.1456458,valid,,Region I,"Pangasinan I, Lingayen",PANGASINAN,LABRADOR,POBLACION,1,1,0
400160,The Adelphi College,16.029456,120.228682,valid,,Region I,"Pangasinan I, Lingayen",PANGASINAN,LINGAYEN (Capital),POBLACION,1,1,0
400162,"Grace Baptist Learning Center of GFBC, Inc",16.0301603,120.2281067,valid,,Region I,"Pangasinan I, Lingayen",PANGASINAN,LINGAYEN (Capital),POBLACION,0,0,0
400163,"Harvent School Foundation, Inc.",16.0256875,120.2340625,valid,,Region I,"Pangasinan I, Lingayen",PANGASINAN,LINGAYEN (Capital),POBLACION,0,0,0
400164,Jesus Good Shepherd Development Center,,,no_coords,invalid,Region I,"Pangasinan I, Lingayen",PANGASINAN,LINGAYEN (Capital),POBLACION,0,0,0
400165,"JN Montessori and High School, Inc.",16.0233703,120.2340739,valid,,Region I,"Pangasinan I, Lingayen",PANGASINAN,LINGAYEN (Capital),POBLACION,0,0,0
400168,Saint Columban's College,16.0210981,120.2306769,valid,,Region I,"Pangasinan I, Lingayen",PANGASINAN,LINGAYEN (Capital),POBLACION,1,1,0
400169,"St. Columban's Institute o9f Domalandan, Inc.",16.0076,120.19582,valid,,Region I,"Pangasinan I, Lingayen",PANGASINAN,LINGAYEN (Capital),DOMALANDAN CENTER,1,1,1
400170,Riverview High School,,,no_coords,invalid,Region I,"Pangasinan I, Lingayen",PANGASINAN,MABINI,POBLACION,1,1,0
400171,First Asian Learning Center of Northern Luzon,15.919826,120.427721,valid,,Region I,"Pangasinan I, Lingayen",PANGASINAN,MALASIQUI,POBLACION,0,0,0
400172,"Malasiqui Adventist School, Inc.",14.57929,121.06494,valid,,Region I,"Pangasinan I, Lingayen",PANGASINAN,MALASIQUI,POBLACION,0,0,0
400173,"Malasiqui Agno Valley College, Inc.",15.91888,120.41237,valid,,Region I,"Pangasinan I, Lingayen",PANGASINAN,MALASIQUI,POBLACION,1,1,0
400174,Malasiqui Catholic School,15.919499,120.41416,valid,,Region I,"Pangasinan I, Lingayen",PANGASINAN,MALASIQUI,POBLACION,1,1,0
400175,Perpetual Help College of Pangasinan,,,no_coords,invalid,Region I,"Pangasinan I, Lingayen",PANGASINAN,MALASIQUI,POBLACION,1,1,0
400176,Mangatarem Catholic School,15.78821,120.29358,fixed_swap,,Region I,"Pangasinan I, Lingayen",PANGASINAN,MANGATAREM,MABINI (POB.),1,1,0
400177,Mystical Rose College of Science and Technology,15.79,120.3,valid,,Region I,"Pangasinan I, Lingayen",PANGASINAN,MANGATAREM,POGON-LOMBOY (POB.),1,1,0
400178,REMLIFE DREAM SCHOOL,15.78787,120.29227,valid,,Region I,"Pangasinan I, Lingayen",PANGASINAN,MANGATAREM,GENERAL LUNA (POB.),0,0,0
400179,Central Pangasinan Adventist School,,,no_coords,no_submission,Region I,"Pangasinan I, Lingayen",PANGASINAN,MAPANDAN,POBLACION,0,0,0
400180,Mapandan Academy,16.02581,120.45571,valid,,Region I,"Pangasinan I, Lingayen",PANGASINAN,MAPANDAN,POBLACION,1,0,0
400181,"Mapandan Catholic School, Inc.",14.57929,121.06494,valid,,Region I,"Pangasinan I, Lingayen",PANGASINAN,MAPANDAN,POBLACION,1,1,0
400182,Horizon Educational Learning Centre,15.98141,120.47371,valid,,Region I,"Pangasinan I, Lingayen",PANGASINAN,SANTA BARBARA,MINIEN WEST,0,0,0
400183,Living Lights Learning Center,16.002184,120.402826,valid,,Region I,"Pangasinan I, Lingayen",PANGASINAN,SANTA BARBARA,POBLACION NORTE,0,0,0
400184,"Pevhee Izel School, Inc.",16.000302,120.399346,valid,,Region I,"Pangasinan I, Lingayen",PANGASINAN,SANTA BARBARA,POBLACION SUR,0,0,0
400185,"Adventist School of Urbiztondo, Inc.",14.57929,121.06494,valid,,Region I,"Pangasinan I, Lingayen",PANGASINAN,URBIZTONDO,POBLACION,0,0,0
400186,"URBIZTONDO CATHOLIC SCHOOL, INC.",15.82225,120.33027,valid,,Region I,"Pangasinan I, Lingayen",PANGASINAN,URBIZTONDO,POBLACION,1,1,0
400188,"Holy Family Educational Institution, Inc.",15.8472352,120.5240905,valid,,Region I,"Pangasinan II, Binalonan",PANGASINAN,ALCALA,PINDANGAN WEST,0,0,0
400192,"Carosucan Adventist Multigrade School, Inc.",15.9429294,120.6249231,valid,,Region I,"Pangasinan II, Binalonan",PANGASINAN,ASINGAN,CAROSUCAN SUR,0,0,0
400193,Little Learners Guided Educational Center,,,no_coords,invalid,Region I,"Pangasinan II, Binalonan",PANGASINAN,ASINGAN,POBLACION WEST,0,0,0
400195,The Salvation Army Educational Services Inc.,16.0005744754082,120.669576393897,valid,,Region I,"Pangasinan II, Binalonan",PANGASINAN,ASINGAN,BARO,1,0,0
400198,"Tacurong St. Benedict Learning Center & Values School, Inc.",14.57929,121.06494,valid,,Region XII,Tacurong City,SULTAN KUDARAT,CITY OF TACURONG,BUENAFLOR,1,0,0
400199,Holy Child Academy,16.04453,120.59201,valid,,Region I,"Pangasinan II, Binalonan",PANGASINAN,BINALONAN,POBLACION,1,1,0
400200,St. Michael School of Tacurong City,6.6873403,124.6749933,fixed_swap,,Region XII,Tacurong City,SULTAN KUDARAT,CITY OF TACURONG,POBLACION,0,0,0
400201,Sta. Fe Learning Center,16.0933,120.5818,valid,,Region I,"Pangasinan II, Binalonan",PANGASINAN,BINALONAN,POBLACION,0,0,0
400202,Academy of St. Anthony of Padua Inc.,16.0487,120.4759,valid,,Region I,"Pangasinan II, Binalonan",PANGASINAN,MANAOAG,BABASIT,1,1,0
400203,Family Child Development School,19.29947,121.44617,valid,,Region I,"Pangasinan II, Binalonan",PANGASINAN,MANAOAG,POBLACION,1,1,1
400205,"Manaoag Adventst School, Inc.",14.57929,121.06494,valid,,Region I,"Pangasinan II, Binalonan",PANGASINAN,MANAOAG,POBLACION,0,0,0
400206,COLEGIO de SAN JUAN de LETRAN - MANAOAG,16.04328,120.48878,valid,,Region I,"Pangasinan II, Binalonan",PANGASINAN,MANAOAG,POBLACION,1,1,0
400207,"Kairos Academy of Tacurong City, Inc.",6.671005,124.66225,valid,,Region XII,Tacurong City,SULTAN KUDARAT,CITY OF TACURONG,NEW ISABELA,0,0,0
400208,Aura Vista Montessori School & High School,16.05883,120.39597,valid,,Region I,"Pangasinan II, Binalonan",PANGASINAN,MANGALDAN,BARI,1,0,0
400209,"Bethel Christian Learning Center of Mangaldan Baptist Church, Inc",16.072402,120.404101,valid,,Region I,"Pangasinan II, Binalonan",PANGASINAN,MANGALDAN,POBLACION,0,0,0
400210,Cherished Moment School,16.0642,120.4042,valid,,Region I,"Pangasinan II, Binalonan",PANGASINAN,MANGALDAN,BARI,1,1,0
400211,"Golden Angels Educational Institution, Inc.",16.08132,120.396682,valid,,Region I,"Pangasinan II, Binalonan",PANGASINAN,MANGALDAN,POBLACION,0,0,0
400212,Metro Dagupan Colleges Productivity High School,16.0813226588802,120.396691138786,valid,,Region I,"Pangasinan II, Binalonan",PANGASINAN,MANGALDAN,POBLACION,1,1,0
400213,"Santo Tomas Catholic School, Inc.",16.0712,120.4044,valid,,Region I,"Pangasinan II, Binalonan",PANGASINAN,MANGALDAN,POBLACION,1,1,0
400214,"The United Methodist Church Cinderella School, Inc.",16.0703319689577,120.403102233073,valid,,Region I,"Pangasinan II, Binalonan",PANGASINAN,MANGALDAN,POBLACION,0,0,0
400215,"Movers Academy, Incorporated",16.041281,120.793744,valid,,Region I,"Pangasinan II, Binalonan",PANGASINAN,NATIVIDAD,POBLACION WEST,1,1,0
400217,"Mary Help of Christians Learning Center Foundation, Inc.",16.11155,120.54591,valid,,Region I,"Pangasinan II, Binalonan",PANGASINAN,POZORRUBIO,POBLACION III,0,0,0
400218,St. Philomena's Academy,16.11139,120.5447,valid,,Region I,"Pangasinan II, Binalonan",PANGASINAN,POZORRUBIO,POBLACION III,1,1,0
400220,The Little Shoe Integrated School,15.8730824,120.6030332,valid,,Region I,"Pangasinan II, Binalonan",PANGASINAN,ROSALES,CARMEN WEST,0,0,0
400221,Livingstone Christian Academy,15.8612555,120.6314948,valid,,Region I,"Pangasinan II, Binalonan",PANGASINAN,ROSALES,TOMANA WEST,0,0,0
400222,Rosales Adventist Multigrade School Inc,15.8928,120.63661,valid,,Region I,"Pangasinan II, Binalonan",PANGASINAN,ROSALES,ZONE V (POB.),0,0,0
400223,Wesleyan Kindergarten Training Center,6.697504,124.678828,valid,,Region XII,Tacurong City,SULTAN KUDARAT,CITY OF TACURONG,POBLACION,0,0,0
400224,"Rosales Wesleyan Academy,Inc.",,,no_coords,invalid,Region I,"Pangasinan II, Binalonan",PANGASINAN,ROSALES,SAN PEDRO WEST,0,1,0
400225,Archdiocesan School of San Fabian,16.121783662005,120.401962040641,valid,,Region I,"Pangasinan II, Binalonan",PANGASINAN,SAN FABIAN,POBLACION,1,1,0
400227,"Joyland School, Inc.",16.1241305,120.404827,valid,,Region I,"Pangasinan II, Binalonan",PANGASINAN,SAN FABIAN,POBLACION,1,1,0
400228,"Marian School of San Fabian, Inc.",16.1648,120.4078,valid,,Region I,"Pangasinan II, Binalonan",PANGASINAN,SAN FABIAN,POBLACION,0,0,0
400229,St. Blaise Christian School Inc.,16.113761,120.398259,valid,,Region I,"Pangasinan II, Binalonan",PANGASINAN,SAN FABIAN,CAYANGA,1,0,0
400230,"San Jacinto Catholic School, Inc.",16.073519,120.436644,valid,,Region I,"Pangasinan II, Binalonan",PANGASINAN,SAN JACINTO,CAPAOAY (POB.),1,1,0
400231,St. Mary's Dominican School,16.0,120.0,valid,,Region I,"Pangasinan II, Binalonan",PANGASINAN,SAN MANUEL,GUISET NORTE (POB.),1,1,0
400232,Children's Learning Center,16.0693185,120.7600529,valid,,Region I,"Pangasinan II, Binalonan",PANGASINAN,SAN NICOLAS,POBLACION WEST,1,0,0
400233,"St. Thomas Aquinas Learning Center of Vigan City, Inc.",17.57216,120.38802,valid,,Region I,Vigan City,ILOCOS SUR,CITY OF VIGAN (Capital),BARANGAY I (POB.),0,0,0
400234,Red Arrow High School,16.06844,120.7607,valid,,Region I,"Pangasinan II, Binalonan",PANGASINAN,SAN NICOLAS,POBLACION WEST,1,1,0
400235,"San Quintin High School Educational Foundation, Inc.",15.9826581326963,120.811811217642,valid,,Region I,"Pangasinan II, Binalonan",PANGASINAN,SAN QUINTIN,POBLACION ZONE I,1,1,0
400236,"St. Mary's Integrated School, Inc.",15.97877,120.69764,valid,,Region I,"Pangasinan II, Binalonan",PANGASINAN,SANTA MARIA,POBLACION WEST,1,1,0
400237,Our Lady of the Pillar Catholic School,15.97898,120.70041,valid,,Region I,"Pangasinan II, Binalonan",PANGASINAN,SANTA MARIA,POBLACION EAST,0,0,0
400238,Northern Luzon Adventist College,16.194138,120.516409,valid,,Region I,"Pangasinan II, Binalonan",PANGASINAN,SISON,ARTACHO,1,1,0
400239,"Our Lady of Mount Carmel, Incorporated",16.17058,120.5101,valid,,Region I,"Pangasinan II, Binalonan",PANGASINAN,SISON,POBLACION CENTRAL,1,1,1
400240,"Luna Colleges, Inc.",14.57929,121.06494,valid,,Region I,"Pangasinan II, Binalonan",PANGASINAN,TAYUG,AMISTAD,1,1,0
400241,Rosales Christian Learning Center,,,no_coords,out_of_bounds,Region I,"Pangasinan II, Binalonan",PANGASINAN,ROSALES,ZONE IV (POB.),0,0,0
400242,"St. Patrick Catholic School, Inc.",16.02881,120.74508,valid,,Region I,"Pangasinan II, Binalonan",PANGASINAN,TAYUG,BARANGAY A (POB.),0,0,0
400243,Tayug Foundational Christian Academy,,,no_coords,invalid,Region I,"Pangasinan II, Binalonan",PANGASINAN,TAYUG,AMISTAD,1,1,0
400245,Immaculate Conception Catholic School,15.92603,120.84095,valid,,Region I,"Pangasinan II, Binalonan",PANGASINAN,UMINGAN,POBLACION WEST,1,1,0
400246,Quezon Memorial Academy,,,no_coords,invalid,Region I,"Pangasinan II, Binalonan",PANGASINAN,UMINGAN,POBLACION WEST,1,1,0
400247,"Cleverkids School, Inc.",15.890833,120.590833,valid,,Region I,"Pangasinan II, Binalonan",PANGASINAN,VILLASIS,PUELAY,0,0,0
400249,St. Anthony Abbot Academy,,,no_coords,invalid,Region I,"Pangasinan II, Binalonan",PANGASINAN,VILLASIS,ZONE I (POB.),1,1,0
400250,"Stars Educational Center, Inc.",15.89114,120.59117,valid,,Region I,"Pangasinan II, Binalonan",PANGASINAN,VILLASIS,PUELAY,0,0,0
400252,"University of Pangasinan, Inc.",14.57929,121.06494,valid,,Region I,Dagupan City,PANGASINAN,DAGUPAN CITY,PANTAL,1,1,0
400253,St. Michael School By-The-Sea,16.0795634975777,120.348684879732,valid,,Region I,Dagupan City,PANGASINAN,DAGUPAN CITY,BONUAN GUESET,1,1,0
400254,Lyceum-Northwestern University Creative Montessori Center,16.0354,120.3305,valid,,Region I,Dagupan City,PANGASINAN,DAGUPAN CITY,TAPUAC,1,1,0
400255,Divine Word Academy of Dagupan,16.0,120.0,valid,,Region I,Dagupan City,PANGASINAN,DAGUPAN CITY,POGO CHICO,1,1,0
400256,Dominican School,16.0326709,120.3310418,valid,,Region I,Dagupan City,PANGASINAN,DAGUPAN CITY,TAPUAC,1,1,0
400257,"Casiphia Baptist Christian Academy, Inc.",7.97154,125.11535,valid,,Region X,Valencia City,BUKIDNON,CITY OF VALENCIA,MAILAG,0,0,0
400258,Ednas School,16.03788,120.33201,valid,,Region I,Dagupan City,PANGASINAN,DAGUPAN CITY,TAPUAC,1,1,0
400259,Escuela de Nuestra Señora de la Salette,16.03468,120.33252,valid,,Region I,Dagupan City,PANGASINAN,DAGUPAN CITY,TAPUAC,1,1,0
400260,F. Q. Duque Med. Foundation Special Science HS,16.0354,120.3305,valid,,Region I,Dagupan City,PANGASINAN,DAGUPAN CITY,TAPUAC,1,0,0
400261,"Harvent School Foundation of Dagupan City, Inc.",16.0374560646704,120.337674781674,valid,,Region I,Dagupan City,PANGASINAN,DAGUPAN CITY,POGO CHICO,0,0,0
400263,"La Marea Academy, Inc.",16.0313,120.33119,valid,,Region I,Dagupan City,PANGASINAN,DAGUPAN CITY,TAPUAC,1,1,0
400264,"Living Lights Academy Foundation, Inc.",16.0726389,120.3366533,valid,,Region I,Dagupan City,PANGASINAN,DAGUPAN CITY,BONUAN GUESET,0,0,0
400265,University of Luzon,16.043,120.33,valid,,Region I,Dagupan City,PANGASINAN,DAGUPAN CITY,POGO CHICO,1,1,0
400266,LYCEUM-NORTHWESTERN UNIVERSITY GENERAL HIGH SCHOOL,16.0354,120.3305,valid,,Region I,Dagupan City,PANGASINAN,DAGUPAN CITY,POBLACION OESTE,1,0,0
400267,"Mother Goose Special School System, Inc.",16.03415,120.33194,valid,,Region I,Dagupan City,PANGASINAN,DAGUPAN CITY,TAPUAC,0,0,0
400269,Pangasinan Universal Institute,16.042611,120.339321,valid,,Region I,Dagupan City,PANGASINAN,DAGUPAN CITY,BARANGAY II (NUEVA),1,0,0
400270,St. Albert the Great School,16.0300707609247,120.335113070438,valid,,Region I,Dagupan City,PANGASINAN,DAGUPAN CITY,MALUED,1,1,0
400271,St. John's Cathedral School,16.024408,122.335337,valid,,Region I,Dagupan City,PANGASINAN,DAGUPAN CITY,BARANGAY IV (ZAMORA),1,1,0
400272,"St. Robert Bellarmine Center for Learning, Inc.",,,no_coords,out_of_bounds,Region I,Dagupan City,PANGASINAN,DAGUPAN CITY,PANTAL,0,0,0
400274,"Wonderland School of Dagupan, Inc.",16.04433,120.34175,valid,,Region I,Dagupan City,PANGASINAN,DAGUPAN CITY,HERRERO,1,0,0
400276,"Caterpillar Centre for Early Learners, Inc.",18.1945,120.3971,valid,,Region I,Laoag City,ILOCOS NORTE,LAOAG CITY (Capital),"BGY. NO. 23, SAN MATIAS (POB.)",0,0,0
400277,Divine Word College Laoag,18.12,120.16,valid,,Region I,Laoag City,ILOCOS NORTE,LAOAG CITY (Capital),"BGY. NO. 13, NSTRA. SRA. DE VISITACION (",1,1,0
400278,Holy Spirit Academy of Laoag,,,no_coords,invalid,Region I,Laoag City,ILOCOS NORTE,LAOAG CITY (Capital),"BGY. NO. 15, SAN GUILLERMO (POB.)",1,1,0
400279,Ilocos Norte Adventist School Inc.,18.0,120.0,valid,,Region I,Laoag City,ILOCOS NORTE,LAOAG CITY (Capital),"BGY. NO. 19, SANTA MARCELA (POB.)",0,0,0
400280,"Kids'  Kollege, Inc.",18.2055536478638,120.595533021531,valid,,Region I,Laoag City,ILOCOS NORTE,LAOAG CITY (Capital),"BGY. NO. 12, SAN ISIDRO (POB.)",1,0,0
400282,Laoag Four Square Kindergarten Sch. Inc.,18.192593,120.6048427,valid,,Region I,Laoag City,ILOCOS NORTE,LAOAG CITY (Capital),"BGY. NO. 26, SAN MARCELINO (POB.)",0,0,0
400283,EDUCARE SCHOOL HOUSE,7.91145,125.0945,valid,,Region X,Valencia City,BUKIDNON,CITY OF VALENCIA,POBLACION,0,0,0
400285,Northern Christian College Basic Education School,18.20274,120.59198,valid,,Region I,Laoag City,ILOCOS NORTE,LAOAG CITY (Capital),"BGY. NO. 5, SAN PEDRO (POB.)",1,1,0
400286,"Northside Bible Baptist Academy, Inc.",18.0,121.0,valid,,Region I,Laoag City,ILOCOS NORTE,LAOAG CITY (Capital),"BGY. NO. 7-A, NSTRA. SRA. DE NATIVIDAD (",0,0,0
400287,Northwestern University,18.185173,120.56704,valid,,Region I,Laoag City,ILOCOS NORTE,LAOAG CITY (Capital),"BGY. NO. 47, BENGCAG",1,1,0
400288,"Our Saviour's Foundation, Inc.",18.201854,120.588131,valid,,Region I,Laoag City,ILOCOS NORTE,LAOAG CITY (Capital),"BGY. NO. 2, SANTA JOAQUINA (POB.)",1,1,0
400289,"Padre Annibale Integrated School, Inc.",14.57929,121.06494,valid,,Region I,Laoag City,ILOCOS NORTE,LAOAG CITY (Capital),"BGY. NO. 23, SAN MATIAS (POB.)",0,0,0
400290,"Saved by Grace Christian Academy, Inc.",18.189164,120.576878,valid,,Region I,Laoag City,ILOCOS NORTE,LAOAG CITY (Capital),"BGY. NO. 44, ZAMBOANGA",0,0,0
400291,"St. Joseph High School of Laoag, Inc.",18.19298,120.60906,valid,,Region I,Laoag City,ILOCOS NORTE,LAOAG CITY (Capital),"BGY. NO. 28, SAN BERNARDO (POB.)",1,1,0
400294,"The Living Gates of Praise Christian School,Inc.",18.1998616972763,120.594614487402,valid,,Region I,Laoag City,ILOCOS NORTE,LAOAG CITY (Capital),"BGY. NO. 10, SAN JOSE (POB.)",0,0,0
400297,Clark Educational Center Inc.,15.93044,120.35343,valid,,Region I,San Carlos City,PANGASINAN,SAN CARLOS CITY,PNR STATION SITE,1,1,0
400298,Ednas School of San Carlos,15.93752,120.34094,valid,,Region I,San Carlos City,PANGASINAN,SAN CARLOS CITY,ROXAS BOULEVARD (POB.),1,0,0
400300,"Gospel of Christ  School of San Carlos, Inc.",15.898934,120.320487,valid,,Region I,San Carlos City,PANGASINAN,SAN CARLOS CITY,SAN PEDRO-TALOY,1,1,0
400301,Holy Child Play Center,15.0869,120.3576,valid,,Region I,San Carlos City,PANGASINAN,SAN CARLOS CITY,PEREZ BOULEVARD (POB.),0,1,1
400302,Dagat Kidavao Baptist Christian School Inc.,,,no_coords,no_submission,Region X,Valencia City,BUKIDNON,CITY OF VALENCIA,DAGAT-KIDAVAO,0,0,0
400303,Mother Goose Special School System,15.0,120.0,valid,,Region I,San Carlos City,PANGASINAN,SAN CARLOS CITY,BONIFACIO (POB.),1,0,0
400304,"Palaris Colleges, Inc.",15.0869,120.3576,valid,,Region I,San Carlos City,PANGASINAN,SAN CARLOS CITY,PEREZ BOULEVARD (POB.),0,1,1
400305,Rainbow School of San Carlos,15.926209,120.348761,valid,,Region I,San Carlos City,PANGASINAN,SAN CARLOS CITY,MABINI (POB.),0,0,0
400306,San Carlos College,15.9264793,120.3503185,valid,,Region I,San Carlos City,PANGASINAN,SAN CARLOS CITY,MABINI (POB.),1,1,0
400307,San Carlos Preparatory School,15.9217607798095,120.352265709008,valid,,Region I,San Carlos City,PANGASINAN,SAN CARLOS CITY,ILANG,1,1,0
400308,VMUF-San Luis High School,15.904221,120.306485,valid,,Region I,San Carlos City,PANGASINAN,SAN CARLOS CITY,TALANG,1,0,0
400309,St. Charles Academy,14.57929,121.06494,valid,,Region I,San Carlos City,PANGASINAN,SAN CARLOS CITY,BONIFACIO (POB.),1,1,0
400310,VMUF - St. Dominic High School,15.919957,120.341439,valid,,Region I,San Carlos City,PANGASINAN,SAN CARLOS CITY,SAN PEDRO-TALOY,1,0,0
400311,St. Therese College Foundation,15.920282,120.350537,valid,,Region I,San Carlos City,PANGASINAN,SAN CARLOS CITY,PALARIS (POB.),1,1,0
400312,Virgen Milagrosa Special Science High School,15.920683,120.341448,valid,,Region I,San Carlos City,PANGASINAN,SAN CARLOS CITY,SAN PEDRO-TALOY,1,0,0
400313,VM Child Learning Center,15.91982,120.341383,valid,,Region I,San Carlos City,PANGASINAN,SAN CARLOS CITY,SAN PEDRO-TALOY,0,0,0
400315,"Divine Grace Montessori and High School of Urdaneta, Inc.",15.9810290775613,120.57135210205,valid,,Region I,Urdaneta City,PANGASINAN,CITY OF URDANETA,SAN VICENTE,1,1,1
400316,Divine Word College of Urdaneta,15.98,120.58,valid,,Region I,Urdaneta City,PANGASINAN,CITY OF URDANETA,BAYAOAS,1,1,0
400318,Lyceum Northern Luzon Elem/High School,15.9833879,120.5715032,valid,,Region I,Urdaneta City,PANGASINAN,CITY OF URDANETA,SAN VICENTE,1,1,0
400319,"Merryland Montessori and High School, Inc.",15.9792112,120.5659837,valid,,Region I,Urdaneta City,PANGASINAN,CITY OF URDANETA,SAN VICENTE,1,1,0
400321,"Mother Goose Special School System, Inc.",14.57929,121.06494,valid,,Region I,Urdaneta City,PANGASINAN,CITY OF URDANETA,BAYAOAS,1,0,0
400324,Our Lady of the Lilies Academy,15.985864,120.572342,valid,,Region I,Urdaneta City,PANGASINAN,CITY OF URDANETA,POBLACION,1,1,0
400325,"Panpacific University, Inc.",,,no_coords,no_submission,Region I,Urdaneta City,PANGASINAN,CITY OF URDANETA,SAN VICENTE,0,0,0
400326,"St. Andrew Montessori and High School, Inc.",15.9591790224343,120.575426963531,valid,,Region I,Urdaneta City,PANGASINAN,CITY OF URDANETA,NANCAYASAN,1,1,0
400330,The Little Angels of St. Francis Learning Center Inc.,16.94146,121.77499,valid,,Region II,Cauayan City,ISABELA,CITY OF CAUAYAN,DISTRICT III (POB.),0,0,0
400331,Divine Word High School of Dana-Ili,18.4178798547467,121.419996654232,valid,,Region II,Cagayan,CAGAYAN,ABULUG,DANA-ILI,1,1,0
400332,Lyceum of Abulug Inc.,18.33,121.47,valid,,Region II,Cagayan,CAGAYAN,ABULUG,CENTRO (POB.),1,1,0
400334,"Lyceum of Alcala,Inc.",17.9029105656457,121.653402536051,valid,,Region II,Cagayan,CAGAYAN,ALCALA,CENTRO NORTE (POB.),1,1,0
400335,St. Philomene of Alcala Inc.,17.90927,121.60022,valid,,Region II,Cagayan,CAGAYAN,ALCALA,CENTRO SUR (POB.),1,1,0
400336,Allacapan Institute Incorporated,18.22533,121.55471,valid,,Region II,Cagayan,CAGAYAN,ALLACAPAN,CENTRO WEST (POB.),1,1,0
400337,Cataratan SDA Multigrade School,18.0,121.0,valid,,Region II,Cagayan,CAGAYAN,ALLACAPAN,CATARATAN,0,0,0
400339,Our Lady Of Victories Academy Inc.,17.83778,121.723,valid,,Region II,Cagayan,CAGAYAN,AMULUNG,CENTRO,1,1,0
400343,Bukig UMC Kiddie Kollege,18.3097931,121.611456,valid,,Region II,Cagayan,CAGAYAN,APARRI,BUKIG,0,0,0
400344,"Cagayan Valley Institute, Inc.",18.5453669,121.6076016,valid,,Region II,Cagayan,CAGAYAN,APARRI,CENTRO   1 (POB.),1,1,0
400345,Lyceum of Aparri,18.34716,121.64337,valid,,Region II,Cagayan,CAGAYAN,APARRI,MACANAYA (PESCARIA),1,1,0
400348,Charis Christian Academy Foundation Inc.,16.916624,121.787924,valid,,Region II,Cauayan City,ISABELA,CITY OF CAUAYAN,DISTRICT II (POB.),0,0,0
400349,St. Paul School of Aparri,18.35799,121.63811,valid,,Region II,Cagayan,CAGAYAN,APARRI,SAN ANTONIO,1,0,0
400350,"St. Joseph's College of Baggao, Inc.",17.8916284,121.8653517,valid,,Region II,Cagayan,CAGAYAN,BAGGAO,SAN JOSE,1,1,0
400351,San Jose Methodist Kiddie Christian  School Inc.,17.898372,121.8804871,valid,,Region II,Cagayan,CAGAYAN,BAGGAO,SAN JOSE,0,0,0
400352,"Balleteros Adventist Multigrade School, INC.",18.41291,121.50874,valid,,Region II,Cagayan,CAGAYAN,BALLESTEROS,CENTRO WEST (POB.),0,0,0
400353,"Northern Cagayan Colleges Foundation, Inc",18.41181,121.51468,fixed_swap,,Region II,Cagayan,CAGAYAN,BALLESTEROS,CENTRO EAST (POB.),1,1,0
400354,Quezon Colleges of the North,18.4095,121.5153,valid,,Region II,Cagayan,CAGAYAN,BALLESTEROS,CENTRO EAST (POB.),1,1,0
400356,Northeastern Academy of Buguey Inc.,18.2893,121.83364,valid,,Region II,Cagayan,CAGAYAN,BUGUEY,CENTRO (POB.),1,1,0
400357,Lyceum of Camiguin,18.9070317301453,121.866641988067,valid,,Region II,Cagayan,CAGAYAN,CALAYAN,BALATUBAT,1,1,1
400359,Asbury UMC Learning Center Inc.,18.254719,121.686847,valid,,Region II,Cagayan,CAGAYAN,CAMALANIUGAN,DUGO,0,0,0
400360,Lyceum of Camalaniugan,18.27083,121.67617,valid,,Region II,Cagayan,CAGAYAN,CAMALANIUGAN,SAPPING,1,1,0
400361,Veridiano-Sto. Nino Institute Inc.,17.88192,121.56875,valid,,Region II,Cagayan,CAGAYAN,SANTO NIÑO (FAIRE),CENTRO SUR (POB.),1,1,0
400362,Academy of Saint Joseph,18.60586,121.08155,valid,,Region II,Cagayan,CAGAYAN,CLAVERIA,CENTRO I (POB.),1,1,0
400363,St. Joseph Parish Pre-School Center Inc.,18.605935,121.08092,valid,,Region II,Cagayan,CAGAYAN,CLAVERIA,CENTRO I (POB.),0,0,0
400364,Our Lady of Snows Academy,17.561048,121.700273,valid,,Region II,Cagayan,CAGAYAN,ENRILE,BARANGAY I (POB.),1,1,0
400365,"Guising Adventist Multigrade School,Inc.",18.05693,121.640632,valid,,Region II,Cagayan,CAGAYAN,GATTARAN,GUISING,0,0,0
400366,Northern Philippines Academy,18.068201,121.645213,valid,,Region II,Cagayan,CAGAYAN,GATTARAN,CENTRO NORTE (POB.),1,1,0
400368,"St. Catherine's Academy of Gattaran, Inc.",18.0736,121.879,valid,,Region II,Cagayan,CAGAYAN,GATTARAN,CENTRO SUR (POB.),1,1,0
400369,Gonzaga Bible Baptist Academy,18.26306,121.99038,valid,,Region II,Cagayan,CAGAYAN,GONZAGA,PROGRESSIVE (POB.),0,0,0
400370,St. Anthony's Academy  of Gonzaga,18.265463,121.999542,valid,,Region II,Cagayan,CAGAYAN,GONZAGA,PARADISE (POB.),1,1,0
400372,Cabayabasan Adventist Multigrade School,18.109295,121.550211,valid,,Region II,Cagayan,CAGAYAN,LAL-LO,CABAYABASAN (CAPACUAN),0,0,0
400373,Jurisdiccion Christian Learning Center,18.2000513,121.661997,valid,,Region II,Cagayan,CAGAYAN,LAL-LO,JURISDICTION,1,0,1
400374,Logac Adventist Multigrade School,18.1548,121.6089,valid,,Region II,Cagayan,CAGAYAN,LAL-LO,LOGAC,0,0,0
400375,"Lyceum of Lal-lo,Inc.",18.20002,121.66167,valid,,Region II,Cagayan,CAGAYAN,LAL-LO,CENTRO (POB.),1,1,0
400376,Good Samaritan Christian Academy of Lasam Incorporated,18.0647503825439,121.600187452118,valid,,Region II,Cagayan,CAGAYAN,LASAM,CENTRO I (POB.),0,0,0
400377,Lasam Academy Incorporated,18.0664888954245,121.6015702877,valid,,Region II,Cagayan,CAGAYAN,LASAM,CENTRO I (POB.),1,1,0
400378,"San Lorenzo Ruiz Educational Institute,Inc.",18.0618284,121.5989022,valid,,Region II,Cagayan,CAGAYAN,LASAM,CENTRO II (POB.),1,1,0
400379,Pamplona Institute,18.4641165,121.3405544,valid,,Region II,Cagayan,CAGAYAN,PAMPLONA,CENTRO (POB.),1,1,0
400380,"Methodist Christian School of Penablanca, INC.",,,no_coords,out_of_bounds,Region II,Cagayan,CAGAYAN,PEÑABLANCA,CENTRO (POB.),0,0,0
400381,San Jacinto Seminary,17.79,122.04,valid,,Region II,Cagayan,CAGAYAN,PEÑABLANCA,ALIMANAO,0,1,0
400382,SCHOOL OF SAINTS PHILIP AND JAMES,17.62283,121.78554,valid,,Region II,Cagayan,CAGAYAN,PEÑABLANCA,CENTRO (POB.),1,0,0
400383,Our Lady of Piat High School,17.79108,121.47717,valid,,Region II,Cagayan,CAGAYAN,PIAT,POBLACION II,1,1,0
400384,Piat Academy Inc.,17.734897,121.510678,valid,,Region II,Cagayan,CAGAYAN,PIAT,SANTO DOMINGO,1,1,0
400385,St. Francis Academy,17.5042,121.2042,valid,,Region II,Cagayan,CAGAYAN,RIZAL,POBLACION,1,1,0
400386,Divine Word High School (S. Mira),18.560297,121.235391,valid,,Region II,Cagayan,CAGAYAN,SANCHEZ-MIRA,CENTRO  I (POB.),1,1,0
400387,Namuac Academy,18.3635,121.101,valid,,Region II,Cagayan,CAGAYAN,SANCHEZ-MIRA,NAMUAC,1,1,0
400388,Namuac Adventist Multigrade School Inc.,18.556875,121.238075,valid,,Region II,Cagayan,CAGAYAN,SANCHEZ-MIRA,NAMUAC,0,0,0
400389,Thoburn Memorial Academy,14.57929,121.06494,valid,,Region II,Cagayan,CAGAYAN,SANCHEZ-MIRA,CENTRO  I (POB.),1,1,1
400391,St. Anthony's College - Sta. Ana,18.48917,122.15519,valid,,Region II,Cagayan,CAGAYAN,SANTA ANA,SANTA CRUZ,1,1,0
400392,St. Francis Academy,18.24779,121.91575,valid,,Region II,Cagayan,CAGAYAN,SANTA TERESITA,VILLA,1,1,0
400394,"San Vicente Institute of Solana, Inc.",17.6508109510213,121.689673189994,valid,,Region II,Cagayan,CAGAYAN,SOLANA,CENTRO NORTHEAST (POB.),1,1,0
400395,"Acacia School Foundation, Inc",14.23,121.08,valid,,Region IV-A,Sta. Rosa City,LAGUNA,CITY OF SANTA ROSA,DON JOSE,0,0,0
400396,"ADVENTIST ELEMENTARY SCHOOL SOLANA CAMPUS, INC.",17.58058,121.59686,valid,,Region II,Cagayan,CAGAYAN,SOLANA,CALILLAUAN,0,0,0
400397,Tuao Academy Inc.,17.7295599,121.46911,valid,,Region II,Cagayan,CAGAYAN,TUAO,ALABUG,0,0,0
400399,"Lyceum of Tuao, Inc.",17.73369,121.45484,valid,,Region II,Cagayan,CAGAYAN,TUAO,POBLACION II (WARD II CENTRO),1,1,0
400400,Sto. Angel dela Guardia Academy,17.732106,121.453397,valid,,Region II,Cagayan,CAGAYAN,TUAO,CATO,1,1,0
400401,United Methodist Christian School - Tuao,17.73289,121.45567,valid,,Region II,Cagayan,CAGAYAN,TUAO,POBLACION II (WARD II CENTRO),0,0,0
400402,Adventist School Alicia Campus,16.78222,121.70038,valid,,Region II,Isabela,ISABELA,ALICIA,ANTONINO (POB.),0,0,0
400404,Dalton Academy,,,no_coords,invalid,Region II,Isabela,ISABELA,ALICIA,MAGSAYSAY (POB.),1,1,0
400406,Northeast Luzon Adventist College Elem. Dept.,16.81203,121.72723,valid,,Region II,Isabela,ISABELA,ALICIA,MABINI,1,1,1
400407,School of Our Lady of Atocha,14.579299,121.06494,valid,,Region II,Isabela,ISABELA,ALICIA,MAGSAYSAY (POB.),1,1,0
400409,School of St. Vincent,,,no_coords,out_of_bounds,Region II,Isabela,ISABELA,ANGADANAN,CENTRO I (POB.),1,0,0
400410,"La Salette of Aurora, Inc.",16.990752,121.631329,valid,,Region II,Isabela,ISABELA,AURORA,SANTA ROSA,1,1,0
400411,St. Clare College of Region 02- Benito Soliven,,,no_coords,no_submission,Region II,Isabela,ISABELA,BENITO SOLIVEN,DISTRICT II (POB.),0,0,0
400412,St. Peter's Academy,17.09507,121.70551,valid,,Region II,Isabela,ISABELA,BURGOS,CULLALABO SAN ANTONIO,1,0,0
400414,Saint Ferdinand College - Cabagan Campus,17.4280106,121.7617321,valid,,Region II,Isabela,ISABELA,CABANGAN,CENTRO (POB.),1,1,0
400416,"La Salette of Cabatuan, Inc.",,,no_coords,no_submission,Region II,Isabela,ISABELA,CABATUAN,SAN ANDRES (TEODORO ABAD),0,0,0
400417,Philippine Yuh Chiau School,16.9536,121.6624,valid,,Region II,Isabela,ISABELA,CABATUAN,DEL PILAR,1,1,0
400418,"Metropolitan Bible Baptist Learning Center, Inc.",16.93801,121.76293,valid,,Region II,Cauayan City,ISABELA,CITY OF CAUAYAN,SAN FERMIN,1,1,0
400419,"Faithlife Academy, Inc. -Main",14.3160847,121.0957932,valid,,Region IV-A,Sta. Rosa City,LAGUNA,CITY OF SANTA ROSA,TAGAPO,0,0,0
400420,Centro De Cultura Inc,16.9328845,121.7689349,valid,,Region II,Cauayan City,ISABELA,CITY OF CAUAYAN,DISTRICT I (POB.),1,1,0
400421,Lakeside Early Academic Development (LEAD) Christian School Inc.,14.31476,121.1212,valid,,Region IV-A,Sta. Rosa City,LAGUNA,CITY OF SANTA ROSA,BALIBAGO,0,0,0
400422,Isabela Colleges Inc.,16.93719,121.77155,valid,,Region II,Cauayan City,ISABELA,CITY OF CAUAYAN,DISTRICT II (POB.),1,1,0
400423,Merry Sunshine Montessori School,16.93844,121.77172,valid,,Region II,Cauayan City,ISABELA,CITY OF CAUAYAN,DISTRICT II (POB.),1,1,0
400424,"NanSing School of Cauayan City, Inc.",,,no_coords,out_of_bounds,Region II,Cauayan City,ISABELA,CITY OF CAUAYAN,DISTRICT II (POB.),1,1,0
400426,"Our Lady of the Pillar College-Cauayan, Inc.",16.940499759872,121.774991550701,valid,,Region II,Cauayan City,ISABELA,CITY OF CAUAYAN,SAN FERMIN,1,1,1
400428,"Queen Ark Angels Montessori School, Inc.",16.6775152,121.4683236,valid,,Region II,Isabela,ISABELA,CORDON,QUEZON (CENTRO NORTE ESTE),0,0,0
400429,St. John Berchman High School Incorporated,16.67241,121.46343,valid,,Region II,Isabela,ISABELA,CORDON,CAPIRPIRIWAN,1,1,0
400430,Interactive Children Learning School,16.70433,121.680433,valid,,Region II,Isabela,ISABELA,ECHAGUE,SILAUAN SUR (POB.),0,0,0
400431,School of St. Joseph the Worker,14.57929,121.06494,valid,,Region II,Isabela,ISABELA,ECHAGUE,CABUGAO (POB.),1,1,0
400432,"St. Dominic Human Development Center, Inc.",16.702166,121.664352,valid,,Region II,Isabela,ISABELA,ECHAGUE,SOYUNG,1,1,0
400433,Villa Fermin Multigrade School,16.58552,121.6419,valid,,Region II,Isabela,ISABELA,ECHAGUE,VILLA FERMIN,0,0,0
400434,Mabini Adventist Multigrade School,,,no_coords,no_submission,Region II,Isabela,ISABELA,GAMU,MABINI,0,0,0
400435,Casa Del Niño Montessori School of Ilagan,17.14055,121.87937,valid,,Region II,City of Ilagan,ISABELA,ILAGAN CITY (CAPITAL),GUINATAN,1,1,0
400436,Central Isabela Christian Academy,17.157256,121.927728,valid,,Region II,City of Ilagan,ISABELA,ILAGAN CITY (CAPITAL),MARANA I,1,1,0
400437,Chung Hua Institute,17.1481584,121.8911594,valid,,Region II,City of Ilagan,ISABELA,ILAGAN CITY (CAPITAL),BACULOD (POB.),0,0,0
400439,Montessori Education Center of Asia-Pacific at Ilagan,17.12494,121.87869,valid,,Region II,City of Ilagan,ISABELA,ILAGAN CITY (CAPITAL),OSMEÃ‘A (SINIPPIL),1,0,0
400440,St. Ferdinand College - Ilagan,17.1498774105826,121.889536519748,valid,,Region II,City of Ilagan,ISABELA,ILAGAN CITY (CAPITAL),CENTRO POBLACION,1,1,0
400441,United Methodist Nursery and Kinder School - Ilagan,14.57929,121.06494,valid,,Region II,City of Ilagan,ISABELA,ILAGAN CITY (CAPITAL),CENTRO POBLACION,0,0,0
400442,"Our Lady of Pilar Academy of Sta. Rosa, Laguna, Inc.",14.31883,121.10806,valid,,Region IV-A,Sta. Rosa City,LAGUNA,CITY OF SANTA ROSA,TAGAPO,0,0,0
400443,"Infant Jesus De Providencia Learning and Development Center, Incorporated",16.55837,121.70535,valid,,Region II,Isabela,ISABELA,JONES,BARANGAY I (POB.),1,1,0
400444,"La Salette of Jones, Inc.",14.579,121.064,valid,,Region II,Isabela,ISABELA,JONES,BARANGAY I (POB.),1,1,0
400445,Montemar-Santos Toddlers Gallery,16.508236,121.748158,valid,,Region II,Isabela,ISABELA,SAN AGUSTIN,MASAYA CENTRO (POB.),1,0,0
400446,Magsaysay Memorial High School,17.3200755340849,121.762037666001,valid,,Region II,Isabela,ISABELA,DELFIN ALBANO (MAGSAYSAY),VILLA LUZ,1,1,0
400447,Delfin Albano Adventist Elementary School Inc.,17.2976783,121.7825829,valid,,Region II,Isabela,ISABELA,DELFIN ALBANO (MAGSAYSAY),SAN JUAN,0,0,0
400448,"Mallig Plains Colleges, Inc.",17.21,121.6,valid,,Region II,Isabela,ISABELA,MALLIG,CASILI,1,1,0
400449,Naguilian Adventist Elementary School,,,no_coords,no_submission,Region II,Isabela,ISABELA,NAGUILIAN,ROXAS (POB.),0,0,0
400450,"School of Saint Joseph (Naguilian, Isabela), Inc.",17.02245,121.83431,valid,,Region II,Isabela,ISABELA,NAGUILIAN,QUEZON (POB.),1,1,0
400452,La Salette of Quezon,,,no_coords,no_submission,Region II,Isabela,ISABELA,QUEZON,SAMONTE (POB.),0,0,0
400453,"JET Montessori School of Ramon, Incorporated",16.7841207325993,121.532222153195,valid,,Region II,Isabela,ISABELA,RAMON,BUGALLON NORTE,1,1,0
400454,"La Salette of Ramon, Inc.",16.7824385825934,121.530896464145,valid,,Region II,Isabela,ISABELA,RAMON,BUGALLON PROPER (POB.),1,1,0
400455,"La Salette of Roxas College, Inc.",17.11635,121.61978,valid,,Region II,Isabela,ISABELA,ROXAS,VIRA (POB.),1,1,0
400456,Marlbury Bush Montessori School,17.1222861702663,121.624346597455,valid,,Region II,Isabela,ISABELA,ROXAS,RIZAL (POB.),0,0,0
400457,Northeastern Integrated School of San Agustin Incorporated,16.5023372218541,121.747029593958,valid,,Region II,Isabela,ISABELA,SAN AGUSTIN,MASAYA SUR,1,1,0
400458,"Southern Isabela Academy, Inc.",16.725378,121.810287,valid,,Region II,Isabela,ISABELA,SAN GUILLERMO,CENTRO 1 (POB.),1,1,0
400459,Alejandrino Family Learning Center,16.988855,122.014603,valid,,Region II,Isabela,ISABELA,SAN MARIANO,ZONE III (POB.),1,1,0
400460,Eveland Christian College,16.8845647771026,121.583075223875,valid,,Region II,Isabela,ISABELA,SAN MATEO,BARANGAY IV (POB.),1,1,0
400461,"Princeton Academy, Inc",14.26725,121.07491,valid,,Region IV-A,Sta. Rosa City,LAGUNA,CITY OF SANTA ROSA,DON JOSE,0,0,0
400462,"La Salette of San Mateo, Incorporated",16.880665,121.590363,valid,,Region II,Isabela,ISABELA,SAN MATEO,BARANGAY I (POB.),1,1,0
400463,Cagayan Valley Christian Leading School,16.7064919516465,121.554908249722,valid,,Region II,Santiago City,ISABELA,CITY OF SANTIAGO,SAN ANDRES,0,0,0
400464,Infant Jesus Montessori School,,,no_coords,invalid,Region II,Santiago City,ISABELA,CITY OF SANTIAGO,MALVAR,1,1,0
400465,Cauayan Christian Learning Center,16.94382,121.76921,valid,,Region II,Cauayan City,ISABELA,CITY OF CAUAYAN,CABARUAN,0,0,0
400466,"School of Saint James the Apostle - Santiago City, Inc",16.69269,121.54842,valid,,Region II,Santiago City,ISABELA,CITY OF SANTIAGO,CENTRO WEST (POB.),0,0,0
400467,Little Angels Child Development Center,16.6838889,121.5416667,valid,,Region II,Santiago City,ISABELA,CITY OF SANTIAGO,ROSARIO,0,0,0
400468,Miracle Living Christian Academy,14.57929,121.06494,valid,,Region II,Santiago City,ISABELA,CITY OF SANTIAGO,CALAOCAN,0,0,0
400469,Son-Rise Child Development Center,14.57929,121.06494,valid,,Region IV-A,Sta. Rosa City,LAGUNA,CITY OF SANTA ROSA,DILA,0,0,0
400470,Northeastern College,14.57929,121.06494,valid,,Region II,Santiago City,ISABELA,CITY OF SANTIAGO,VILLASIS,1,1,0
400471,St. Judiel Learning Center,14.310375121,121.120514,valid,,Region IV-A,Sta. Rosa City,LAGUNA,CITY OF SANTA ROSA,APLAYA,0,0,0
400472,"Seventh-day Adventist Elementary School (SAES) Santiago City, Inc.",16.0,121.0,valid,,Region II,Santiago City,ISABELA,CITY OF SANTIAGO,DUBINAN EAST,0,0,0
400473,Santiago Cultural Institute,16.6875,121.5356,valid,,Region II,Santiago City,ISABELA,CITY OF SANTIAGO,SAN ANDRES,0,0,0
400474,"United Methodist School of Santiago City, Inc",,,no_coords,out_of_bounds,Region II,Santiago City,ISABELA,CITY OF SANTIAGO,CENTRO EAST (POB.),0,0,0
400475,"University of La Salette,Inc.  Grade School",16.68765,121.55234,valid,,Region II,Santiago City,ISABELA,CITY OF SANTIAGO,MALVAR,1,1,0
400476,"Northern Isabela Academy, Inc.",17.34401,121.74675,valid,,Region II,Isabela,ISABELA,SANTO TOMAS,CALINAOAN CENTRO,1,1,1
400477,School of Saint Matthias,17.2753372,121.8074598,valid,,Region II,Isabela,ISABELA,TUMAUINI,BARANGAY DISTRICT  4 (POB.),1,1,0
400478,Technow Montessori of Santa Rosa,14.32276,121.09754,valid,,Region IV-A,Sta. Rosa City,LAGUNA,CITY OF SANTA ROSA,TAGAPO,0,0,0
400479,Tumauini Adventist Elementary Inc.,17.293066,121.805465,valid,,Region II,Isabela,ISABELA,TUMAUINI,SAN MATEO,0,0,0
400480,Aritao Methodist Christian School,16.296767,121.035156,valid,,Region II,Nueva Vizcaya,NUEVA VIZCAYA,ARITAO,POBLACION,0,0,0
400481,"Baptist Christian Academy of Aritao, Inc.",16.295348,121.032493,valid,,Region II,Nueva Vizcaya,NUEVA VIZCAYA,ARITAO,COMON,0,0,0
400482,"Goodness, Righteousness, Awesome Power, Care, Everlasting Love, Inc.",14.3183107,121.1177297,valid,,Region IV-A,Sta. Rosa City,LAGUNA,CITY OF SANTA ROSA,MARKET AREA (POB.),0,0,0
400483,Nueva Vizcaya Institute,,,no_coords,no_submission,Region II,Nueva Vizcaya,NUEVA VIZCAYA,ARITAO,POBLACION,0,0,0
400484,"St. Teresita's Academy of Aritao, Inc.",,,no_coords,out_of_bounds,Region II,Nueva Vizcaya,NUEVA VIZCAYA,ARITAO,POBLACION,1,1,0
400485,"Immaculate Conception Academy of Bone South, Aritao, Inc.",16.252757,121.0039,valid,,Region II,Nueva Vizcaya,NUEVA VIZCAYA,ARITAO,BONE SOUTH,1,1,1
400486,Our Lady in Pink and Blue School Inc.,,,no_coords,invalid,Region IV-A,Sta. Rosa City,LAGUNA,CITY OF SANTA ROSA,TAGAPO,0,0,0
400487,Bagabag Child Development Center,,,no_coords,no_submission,Region II,Nueva Vizcaya,NUEVA VIZCAYA,BAGBAG,SAN PEDRO (POB.),0,0,0
400488,Lantap Kiddie Learning Center,16.625785,121.236572,valid,,Region II,Nueva Vizcaya,NUEVA VIZCAYA,BAGBAG,LANTAP,0,0,0
400489,Murong UMC Learning Center,16.60077,121.22428,valid,,Region II,Nueva Vizcaya,NUEVA VIZCAYA,BAGBAG,MURONG,0,0,0
400491,"Saint Jerome's Academy of Bagabag, Inc.",16.60753,121.25262,valid,,Region II,Nueva Vizcaya,NUEVA VIZCAYA,BAGBAG,SAN GERONIMO (POB.),1,1,0
400493,"Aurora Christian School Foundation, Inc.",16.3845527128857,121.10319339402,valid,,Region II,Nueva Vizcaya,NUEVA VIZCAYA,BAMBANG,BUAG (POB.),0,0,0
400494,Bambang United Methodist Church Kiddie Center,16.3857389,121.1056021,valid,,Region II,Nueva Vizcaya,NUEVA VIZCAYA,BAMBANG,BUAG (POB.),0,0,0
400495,"Sts. Paul & Mark School, Inc.",14.2821460389423,121.122206245676,valid,,Region IV-A,Sta. Rosa City,LAGUNA,CITY OF SANTA ROSA,DITA,0,0,0
400496,Little Lambs Learning Center,16.3857,121.10586,valid,,Region II,Nueva Vizcaya,NUEVA VIZCAYA,BAMBANG,BUAG (POB.),0,0,0
400498,Adventist Elementary School Almaguer Campus Inc.,,,no_coords,no_submission,Region II,Nueva Vizcaya,NUEVA VIZCAYA,BAMBANG,ALMAGUER SOUTH,0,0,0
400499,"Saint Catherine's School of Bambang, Inc.",16.38479,121.10413,valid,,Region II,Nueva Vizcaya,NUEVA VIZCAYA,BAMBANG,BUAG (POB.),1,1,0
400502,Bonfal Proper Kiddie Learning Center,16.502,121.17324,valid,,Region II,Nueva Vizcaya,NUEVA VIZCAYA,BAYOMBONG (Capital),BONFAL PROPER,0,0,0
400503,Kingsway Christian Academy,16.4878923362522,121.152347808929,valid,,Region II,Nueva Vizcaya,NUEVA VIZCAYA,BAYOMBONG (Capital),SAN NICOLAS NORTH (LUYANG),0,0,0
400505,St. Mary's University - Grade School Department,16.48172,121.14937,valid,,Region II,Nueva Vizcaya,NUEVA VIZCAYA,BAYOMBONG (Capital),DON DOMINGO MADDELA POB. (DISTRICT I),0,1,0
400506,Saint Mary's University Junior High and Science High School,16.483672,121.155189,valid,,Region II,Nueva Vizcaya,NUEVA VIZCAYA,BAYOMBONG (Capital),DON TOMAS MADDELA POB. (DISTRICT II),0,1,0
400508,United Methodist Christian School,,,no_coords,invalid,Region II,Nueva Vizcaya,NUEVA VIZCAYA,BAYOMBONG (Capital),DON DOMINGO MADDELA POB. (DISTRICT I),0,0,0
400509,St. Joseph School,,,no_coords,no_submission,Region II,Nueva Vizcaya,NUEVA VIZCAYA,DIADI,POBLACION,0,0,0
400511,Belance Seventh Day Adventist Elementary School,,,no_coords,no_submission,Region II,Nueva Vizcaya,NUEVA VIZCAYA,DUPAX DEL NORTE,BELANCE,0,0,0
400512,Ineangan Kiddie Learning Center,,,no_coords,no_submission,Region II,Nueva Vizcaya,NUEVA VIZCAYA,DUPAX DEL NORTE,INEANGAN,0,0,0
400515,"Camella Snv  School, Inc.",,,no_coords,no_submission,Region II,Nueva Vizcaya,NUEVA VIZCAYA,DUPAX DEL NORTE,MALASIN (POB.),0,0,0
400517,"Saint Mary's School of Dupax, Inc.",,,no_coords,no_submission,Region II,Nueva Vizcaya,NUEVA VIZCAYA,DUPAX DEL SUR,DOPAJ,0,0,0
400518,Paquet  Seventh - Day Adventist Elementary School,,,no_coords,no_submission,Region II,Nueva Vizcaya,NUEVA VIZCAYA,KASIBU,PACQUET (ILONGOT RES.),0,0,0
400519,Agape Kiddie Center,16.1581206871115,120.937942494784,valid,,Region II,Nueva Vizcaya,NUEVA VIZCAYA,SANTA FE,POBLACION,0,0,0
400520,Kalahan Academy,16.157143,120.904079,valid,,Region II,Nueva Vizcaya,NUEVA VIZCAYA,SANTA FE,IMUGAN,1,0,0
400521,Aldersgate College,16.527134,121.182495,valid,,Region II,Nueva Vizcaya,NUEVA VIZCAYA,SOLANO,QUIRINO,1,1,0
400524,"Ichthus Academy, Inc.",,,no_coords,no_submission,Region II,Nueva Vizcaya,NUEVA VIZCAYA,SOLANO,ROXAS,0,0,0
400525,Jesus Flock Academy,,,no_coords,no_submission,Region II,Nueva Vizcaya,NUEVA VIZCAYA,SOLANO,ROXAS,0,0,0
400526,Lactawan Learning Center,16.55101,121.18953,valid,,Region II,Nueva Vizcaya,NUEVA VIZCAYA,SOLANO,LACTAWAN,0,0,0
400527,"Theresa Margaritte Child Learning Center, Inc.",14.3125437,121.1045201,valid,,Region IV-A,Sta. Rosa City,LAGUNA,CITY OF SANTA ROSA,TAGAPO,0,0,0
400531,Solano Adventist Multigrade School,,,no_coords,no_submission,Region II,Nueva Vizcaya,NUEVA VIZCAYA,SOLANO,ROXAS,0,0,0
400532,"Saint Louis College of Solano, Inc.",16.518729,121.180971,valid,,Region II,Nueva Vizcaya,NUEVA VIZCAYA,SOLANO,POBLACION NORTH,1,1,0
400534,United Methodist Church Kiddie Kollege,,,no_coords,no_submission,Region II,Nueva Vizcaya,NUEVA VIZCAYA,SOLANO,POBLACION NORTH,0,0,0
400535,Bintawan UMC Learning Center Inc.,16.57788,121.18898,valid,,Region II,Nueva Vizcaya,NUEVA VIZCAYA,VILLAVERDE,BINTAWAN SUR,0,0,0
400536,Our Lady of Fatima School of Villaverde,16.60768,121.18378,valid,,Region II,Nueva Vizcaya,NUEVA VIZCAYA,VILLAVERDE,IBUNG,1,1,0
400537,Saint Christian Educational Center Inc.,16.46673,121.65,valid,,Region II,Quirino,QUIRINO,AGLIPAY,PINARIPAD  NORTE,1,0,0
400538,Cabarroguis Faith Academy,16.5152711,121.522936,valid,,Region II,Quirino,QUIRINO,CABARROGUIS (Capital),GUNDAWAY (POB.),0,0,0
400540,St. Mark's School,16.518782,121.525635,valid,,Region II,Quirino,QUIRINO,CABARROGUIS (Capital),GUNDAWAY (POB.),1,1,0
400541,Gabriela Adventist Multigrade School,16.60025,121.46669,valid,,Region II,Quirino,QUIRINO,DIFFUN,GABRIELA SILANG,0,0,0
400543,St. Mary's Academy,,,no_coords,no_submission,Region II,Quirino,QUIRINO,DIFFUN,ANDRES BONIFACIO (POB.),0,0,0
400544,Kindertech of Uno Cevita,14.29277,121.107202,valid,,Region IV-A,Sta. Rosa City,LAGUNA,CITY OF SANTA ROSA,DILA,0,0,0
400545,"Methodist Beatitudes School, Inc.",16.33967,121.68757,valid,,Region II,Quirino,QUIRINO,MADDELA,POBLACION SUR,0,0,0
400546,St. Vincent School,16.3394383011612,121.679458345994,valid,,Region II,Quirino,QUIRINO,MADDELA,POBLACION SUR,1,1,0
400547,La Primera Eskwela Child Development Center,,,no_coords,no_submission,Region IV-A,Sta. Rosa City,LAGUNA,CITY OF SANTA ROSA,IBABA,0,0,0
400548,University of Cagayan Valley,,,no_coords,out_of_bounds,Region II,Tuguegarao City,CAGAYAN,TUGUEGARAO CITY(Capital),CENTRO 12 (POB.),1,1,0
400550,"Christian Baptist Academy of Tuguegarao, Inc.",17.6511067027556,121.741929476131,valid,,Region II,Tuguegarao City,CAGAYAN,TUGUEGARAO CITY(Capital),CARIG,0,0,0
400553,Ke Bing School,,,no_coords,invalid,Region II,Tuguegarao City,CAGAYAN,TUGUEGARAO CITY(Capital),CENTRO 6 (POB.),0,0,0
400554,Linao Methodist Educational Center,17.64017,121.71828,valid,,Region II,Tuguegarao City,CAGAYAN,TUGUEGARAO CITY(Capital),LINAO EAST,0,0,0
400555,Little Jesus Christian Academy,17.6238,121.7181,valid,,Region II,Tuguegarao City,CAGAYAN,TUGUEGARAO CITY(Capital),SAN GABRIEL,1,1,0
400557,Methodist Christian School,17.6173789021546,121.727354922933,valid,,Region II,Tuguegarao City,CAGAYAN,TUGUEGARAO CITY(Capital),CENTRO 8 (POB.),0,0,0
400558,"Montessori De Cagayan, Inc.",14.57929,121.06494,valid,,Region II,Tuguegarao City,CAGAYAN,TUGUEGARAO CITY(Capital),PENGUE (PENGUE-RUYU),0,0,0
400560,"King James Christian School of Santiago City, Inc.",16.67816,121.53863,valid,,Region II,Santiago City,ISABELA,CITY OF SANTIAGO,ROSARIO,0,0,0
400561,University of St. Louis Tuguegarao,17.6108124233519,121.724403590076,valid,,Region II,Tuguegarao City,CAGAYAN,TUGUEGARAO CITY(Capital),UGAC SUR,1,1,0
400562,St. Paul University Philippines,17.6169,121.72497,valid,,Region II,Tuguegarao City,CAGAYAN,TUGUEGARAO CITY(Capital),UGAC NORTE,1,1,0
400565,"Baler Adventist Elementary School, Inc.",15.75872,121.55912,valid,,Region III,Aurora,AURORA,BALER  (Capital),SUCLAYIN,0,0,0
400566,Angelcare Science Academy,,,no_coords,invalid,Region III,Aurora,AURORA,BALER  (Capital),SUCLAYIN,0,0,0
400568,Baler Institute,15.76,121.56,valid,,Region III,Aurora,AURORA,BALER  (Capital),BARANGAY I (POB.),1,1,1
400571,Mount Carmel College,15.7596,121.5627,valid,,Region III,Aurora,AURORA,BALER  (Capital),BARANGAY II (POB.),1,1,0
400573,"Casiguran Adventist Elementary School, Inc.",16.27662,122.12519,valid,,Region III,Aurora,AURORA,CASIGURAN,BARANGAY  7 (POB.),0,0,0
400574,Mount Carmel College of Casiguran,16.27666,122.12392,valid,,Region III,Aurora,AURORA,CASIGURAN,BARANGAY  6 (POB.),1,1,0
400575,"Dilasag Adventist Elementary School, Inc.",14.973873,120.157778,valid,,Region III,Aurora,AURORA,DILASAG,MALIGAYA (POB.),0,0,0
400577,"Dinalungan Adventist Elementary School, Inc.",16.13865,121.95884,valid,,Region III,Aurora,AURORA,DINALUNGAN,ZONE I (POB.),0,0,0
400578,Saint Patrick's Academy,15.38617,121.40419,valid,,Region III,Aurora,AURORA,DINGALAN,PALTIC,1,1,0
400579,Father John Karash Memorial High School,15.8500038568859,121.53922407888,valid,,Region III,Aurora,AURORA,DIPACULAO,NORTH POBLACION,1,1,0
400580,John Wesley Child Development Center,,,no_coords,no_submission,Region III,Aurora,AURORA,DIPACULAO,NORTH POBLACION,0,0,0
400581,Mount Carmel School of Maria Aurora,15.7950702,121.4736238,valid,,Region III,Aurora,AURORA,MARIA AURORA,BARANGAY II (POB.),1,1,0
400582,Philos Montessori Learning Center,15.801,121.4772,valid,,Region III,Aurora,AURORA,MARIA AURORA,BARANGAY III (POB.),0,0,0
400583,Wesley Kiddie Development Center,15.79593,121.47503,valid,,Region III,Aurora,AURORA,MARIA AURORA,BARANGAY II (POB.),1,0,0
400584,Wesleyan University - Philippines,15.79689,121.48196,valid,,Region III,Aurora,AURORA,MARIA AURORA,BARANGAY I (POB.),1,1,0
400585,"Amazing Grace Christian School, Inc.",16.682613,121.535053,valid,,Region II,Santiago City,ISABELA,CITY OF SANTIAGO,PLARIDEL,0,0,0
400586,Mount Carmel School of San Luis,15.71685,121.51735,valid,,Region III,Aurora,AURORA,SAN LUIS,BARANGAY IV (POB.),1,1,0
400587,Our Lady of Consolacion Learning Center,15.721016,121.5186696,valid,,Region III,Aurora,AURORA,SAN LUIS,BARANGAY III (POB.),0,0,0
400589,"Jesus Reigns Christian Learning Center, Inc.",14.7274447,120.5330383,valid,,Region III,Bataan,BATAAN,ABUCAY,CALAYLAYAN (POB.),0,0,0
400590,"Episcopal Diocese of Santiago Children's Learning Center, Inc.",16.68932,121.59301,valid,,Region II,Santiago City,ISABELA,CITY OF SANTIAGO,BATAL,0,0,0
400591,"Loreto Academy, Inc.",10.371884,125.6314,valid,,CARAGA,Dinagat Island,DINAGAT ISLANDS,LORETO,CARMEN (POB.),1,1,0
400592,St. Agnes Institute of Bagac,,,no_coords,no_submission,Region III,Bataan,BATAAN,BAGAC,TABING-ILOG (POB.),0,0,0
400593,Asia Pacific College of Advanced Studies,14.67958,120.53769,valid,,Region III,Balanga City,BATAAN,CITY OF BALANGA (Capital),IBAYO,1,1,0
400596,"Bataan Montessori School, Inc.",14.663144,120.539978,valid,,Region III,Balanga City,BATAAN,CITY OF BALANGA (Capital),CENTRAL,0,0,0
400597,Ecumenical Learning Center for Children,14.677942,120.537953,valid,,Region III,Balanga City,BATAAN,CITY OF BALANGA (Capital),SAN JOSE,0,0,0
400600,"Jesus is Lord Christian School Foundation, Inc.",14.6738166221201,120.522029123755,valid,,Region III,Balanga City,BATAAN,CITY OF BALANGA (Capital),BAGONG SILANG,0,0,0
400601,Saint Joseph Child Development Center Inc.,14.6857165,120.5465315,valid,,Region III,Balanga City,BATAAN,CITY OF BALANGA (Capital),DOÃ‘A FRANCISCA,0,0,0
400602,"St. Joseph City School of Balanga, Inc.",14.679991,120.541059,valid,,Region III,Balanga City,BATAAN,CITY OF BALANGA (Capital),POBLACION,0,0,0
400603,Tomas Del Rosario College,14.67837,120.53741,valid,,Region III,Balanga City,BATAAN,CITY OF BALANGA (Capital),SAN JOSE,1,1,0
400605,Dinalupihan Adventist Elem School,14.874973,120.462241,valid,,Region III,Bataan,BATAAN,DINALUPIHAN,SANTO NINO,0,0,0
400607,Immaculate Heart of Mary School of Dinalupihan,14.86737,120.46831,valid,,Region III,Bataan,BATAAN,DINALUPIHAN,RIZAL (POB.),0,0,0
400609,Brightspark Christian Academy,8.055033,125.141199,valid,,Region X,Malaybalay City,BUKIDNON,CITY MALAYBALAY (Capital),AGLAYAN,1,1,0
400610,"St. John's Academy, Inc",14.86838,120.46773,valid,,Region III,Bataan,BATAAN,DINALUPIHAN,RIZAL (POB.),1,1,0
400614,DIVINE MIRACLE CHRISTIAN ACADEMY,14.83282,120.50045,valid,,Region III,Bataan,BATAAN,HERMOSA,SAN PEDRO (POB.),0,0,0
400615,"Jesus Saves Integrated School Foundation, Inc.",14.8257511,120.5116118,valid,,Region III,Bataan,BATAAN,HERMOSA,MABUCO,1,1,0
400616,St. Peter of Verona Academy,14.82965,120.50816,valid,,Region III,Bataan,BATAAN,HERMOSA,SAN PEDRO (POB.),1,1,0
400617,Daughters of St. Dominic School of Limay Bataan Inc.,14.57929,121.06494,valid,,Region III,Bataan,BATAAN,LIMAY,DUALE,0,0,0
400618,Limay Community School,14.56582,120.59562,valid,,Region III,Bataan,BATAAN,LIMAY,SAN FRANCISCO DE ASIS,0,0,0
400619,"The Peninsula School, Inc.",14.5301976641297,120.596705907793,valid,,Region III,Bataan,BATAAN,LIMAY,ALANGAN,1,1,0
400620,Alasasin Christian Kiddie School,14.46096,120.53222,valid,,Region III,Bataan,BATAAN,MARIVELES,ALAS-ASIN,0,0,0
400621,"BEPZ Multinational School, Inc.",14.448754,120.492727,valid,,Region III,Bataan,BATAAN,MARIVELES,MALAYA,1,1,0
400622,Cabcaben Kiddie School,14.456101,120.588655,valid,,Region III,Bataan,BATAAN,MARIVELES,CABCABEN,0,0,0
400623,"Llamas Memorial Institute, Inc.",,,no_coords,no_submission,Region III,Bataan,BATAAN,MARIVELES,POBLACION,0,0,0
400624,"Mountain View Village Community School, Inc.",14.455936,120.574495,valid,,Region III,Bataan,BATAAN,MARIVELES,MT. VIEW,1,0,0
400625,BUGEMCO Learning Center,8.15211,125.13375,valid,,Region X,Malaybalay City,BUKIDNON,CITY MALAYBALAY (Capital),BARANGAY 9 (POB.),0,0,0
400626,St. Nicholas Catholic School of Mariveles,14.43476,120.485568,valid,,Region III,Bataan,BATAAN,MARIVELES,POBLACION,1,1,0
400627,"SNCCC Learning Center of Mariveles, Inc.",14.4347,120.4859,valid,,Region III,Bataan,BATAAN,MARIVELES,POBLACION,1,0,0
400628,Sunny Hillside School,14.654738963439,120.480381195666,valid,,Region III,Bataan,BATAAN,MARIVELES,IPAG,1,1,0
400630,BLC Integrated School,14.792237,120.538627,valid,,Region III,Bataan,BATAAN,ORANI,APOLLO,1,0,0
400631,Holy Rosary Parochial Institute,14.80091,120.535956,valid,,Region III,Bataan,BATAAN,ORANI,BAYAN (POB.),1,1,0
400632,Jose Rizal Institute (Orani),14.57929,121.06494,valid,,Region III,Bataan,BATAAN,ORANI,PARANG PARANG (POB.),1,1,0
400633,Orani Methodist Ecumenical School  Inc.,14.80126,120.53467,valid,,Region III,Bataan,BATAAN,ORANI,BAYAN (POB.),0,0,0
400634,Academy of East Asia for Business and Technology,14.79933,120.537742,valid,,Region III,Bataan,BATAAN,ORANI,MULAWIN,1,1,1
400636,Talimundoc Adventist Elem. School,14.81684,120.51369,valid,,Region III,Bataan,BATAAN,ORANI,TALIMUNDOC,0,0,0
400637,Gethsemane Ecumenical School,14.6186877575862,120.578597726135,valid,,Region III,Bataan,BATAAN,ORION,WAKAS (POB.),0,0,0
400638,Jose Rizal Institute (Orion),14.6238102787619,120.575484314963,valid,,Region III,Bataan,BATAAN,ORION,SAN VICENTE (POB.),1,1,0
400642,St. Michael Kinder and Elem School,14.57292,121.06494,valid,,Region III,Bataan,BATAAN,ORION,SAN VICENTE (POB.),0,0,0
400643,Saint Michael the Archangel Academy,14.6220329,120.5765488,valid,,Region III,Bataan,BATAAN,ORION,SAN VICENTE (POB.),1,1,0
400644,"Bataan Christian College, Inc.",14.66494,120.55126,valid,,Region III,Bataan,BATAAN,PILAR,PANILAO,1,1,0
400645,Samal Ecumenical Learning Center,14.769635,120.539399,valid,,Region III,Bataan,BATAAN,SAMAL,SAN JUAN (POB.),0,0,0
400646,"Saint Catherine of Siena Academy of Samal, Inc.",14.7698758988999,120.541426109878,valid,,Region III,Bataan,BATAAN,SAMAL,SAN ROQUE (POB.),1,1,0
400647,Trinity United Methodist School of Bataan INC,14.75317,120.54243,valid,,Region III,Bataan,BATAAN,SAMAL,EAST CALAGUIMAN (POB.),0,0,0
400648,Colegio de Sta. Monica de Angat,14.9277407540129,121.028964010579,valid,,Region III,Bulacan,BULACAN,ANGAT,SANTA CRUZ (POB.),1,1,0
400649,F. D. Roosevelt Memorial School,14.9290472898769,121.029709779068,valid,,Region III,Bulacan,BULACAN,ANGAT,SANTO CRISTO (POB.),1,1,0
400650,"St. Joseph Kalinangan Integrated School, Inc.",14.9460254974413,121.005770903253,valid,,Region III,Bulacan,BULACAN,ANGAT,SULUCAN,1,1,0
400651,Lourdes College of Bulacan,14.93825,121.01883,valid,,Region III,Bulacan,BULACAN,ANGAT,SAN ROQUE (POB.),1,1,0
400653,A - Z Country Day School,,,no_coords,no_submission,Region III,Bulacan,BULACAN,BALAGTAS (BIGAA),BOROL 2ND,0,0,0
400655,"Children's Mindware School, Inc.",14.830373,120.905578,valid,,Region III,Bulacan,BULACAN,BALAGTAS (BIGAA),BOROL 2ND,0,0,0
400656,Colegio de Roma,14.815349,120.9110444,valid,,Region III,Bulacan,BULACAN,BALAGTAS (BIGAA),SAN JUAN,1,0,0
400657,"College of St. Lawrence, Inc.",14.82141,120.9038,valid,,Region III,Bulacan,BULACAN,BALAGTAS (BIGAA),BOROL 1ST,1,1,0
400660,Early Values Kiddie Center,14.82159,120.9068,valid,,Region III,Bulacan,BULACAN,BALAGTAS (BIGAA),LONGOS,0,0,0
400661,"Garden Angels Integrated School, Inc.",14.8290846,120.9076433,valid,,Region III,Bulacan,BULACAN,BALAGTAS (BIGAA),BOROL 1ST,1,1,0
400664,La Consolacion School,14.831582,120.903786,valid,,Region III,Bulacan,BULACAN,BALAGTAS (BIGAA),LONGOS,1,1,0
400666,"Panginay Unida Christian School, Inc.",14.8185141993787,120.894990557636,valid,,Region III,Bulacan,BULACAN,BALAGTAS (BIGAA),PANGINAY,0,0,0
400667,Baliuag Alliance Christian Academy,14.9291433496311,120.885973432686,valid,,Region III,City of Baliwag,BULACAN,BALIUAG,TARCAN,0,0,0
400668,Baliuag Cross and Flame Academy,14.9579233,120.8998173,valid,,Region III,City of Baliwag,BULACAN,BALIUAG,BAGONG NAYON,1,0,0
400669,Baliuag University,14.9538306,120.8973163,valid,,Region III,City of Baliwag,BULACAN,BALIUAG,POBLACION,1,1,0
400670,"Catholic Servants of Christ Community School, Baliuag",14.976364,120.884979,valid,,Region III,City of Baliwag,BULACAN,BALIUAG,SULIVAN,0,0,0
400671,Christ Saviour Christian Academy,14.9172399,120.8855865,valid,,Region III,City of Baliwag,BULACAN,BALIUAG,MAKINABANG,0,0,0
400673,Grace Christian Academy,14.8386,121.0163,valid,,Region III,Bulacan,BULACAN,SANTA MARIA,BULAC,1,0,0
400675,"Bridgette Yvan Learning Center, Inc.",14.66155,120.94459,valid,,NCR,Navotas,NCR   THIRD DISTRICT,CITY OF NAVOTAS,SAN JOSE (POB.),0,0,0
400676,Immaculate Conception School of Baliuag,,,no_coords,no_submission,Region III,City of Baliwag,BULACAN,BALIUAG,CONCEPCION,0,0,0
400677,Liceo de Bethlehem,14.95204,120.90317,valid,,Region III,City of Baliwag,BULACAN,BALIUAG,POBLACION,0,0,0
400678,Living Angels Christian Academy,14.9552067460663,120.89032426696,valid,,Region III,City of Baliwag,BULACAN,BALIUAG,SANTO CRISTO,1,1,0
400679,"Marian College of Baliuag, Inc.",14.951211,120.895675,valid,,Region III,City of Baliwag,BULACAN,BALIUAG,SAN JOSE,1,1,0
400680,Montessori De Sagrada Familia,14.96889,120.89529,valid,,Region III,City of Baliwag,BULACAN,BALIUAG,,1,1,0
400682,Open Door Christian Academy,,,no_coords,no_submission,Region III,City of Baliwag,BULACAN,BALIUAG,SANTA BARBARA,0,0,0
400683,Our Lady of Mt. Carmel College,14.9661,120.9188,valid,,Region III,City of Baliwag,BULACAN,BALIUAG,SABANG,1,1,0
400685,San Benildo Integrated School Foundation ( Baliuag) Inc.,14.953188,120.895869,valid,,Region III,City of Baliwag,BULACAN,BALIUAG,CONCEPCION,1,1,0
400688,"St. Jean Baptiste Academy, Inc.",14.95,120.89,valid,,Region III,City of Baliwag,BULACAN,BALIUAG,CONCEPCION,1,1,1
400689,St. Mark College of Baliuag Bul. Inc.,14.9638,120.9178,valid,,Region III,City of Baliwag,BULACAN,BALIUAG,SANTA BARBARA,1,1,0
400690,St. Mary's College of Baliuag,14.95592,120.9,valid,,Region III,City of Baliwag,BULACAN,BALIUAG,POBLACION,1,1,0
400691,"Mary's Bee Learning School First Step in Developing Young Minds, Inc.",14.672,120.93879,valid,,NCR,Navotas,NCR   THIRD DISTRICT,CITY OF NAVOTAS,SAN ROQUE,0,0,0
400693,The Little Campus North Bend School,14.95757,120.90548,valid,,Region III,City of Baliwag,BULACAN,BALIUAG,TIBAG,0,0,0
400696,C4 Network of Hope Worship & Mission Church Int'l. Inc.,14.57929,121.06494,valid,,NCR,Navotas,NCR   THIRD DISTRICT,CITY OF NAVOTAS,"NORTH BAY BLVD., SOUTH",0,0,0
400697,Bocaue Adventist Elem. Sch.,14.79536,120.92385,valid,,Region III,Bulacan,BULACAN,BOCAUE,BAGUMBAYAN,0,0,0
400699,"Julie Christian Academic System Learning Center, Inc.",,,no_coords,no_submission,NCR,Navotas,NCR   THIRD DISTRICT,CITY OF NAVOTAS,"NORTH BAY BLVD., SOUTH",0,0,0
400700,"Corinthian School,Inc.",14.7816866933968,120.932222849064,valid,,Region III,Bulacan,BULACAN,BOCAUE,LOLOMBOY,1,1,0
400701,Dr. Yanga's Colleges Inc.,,,no_coords,no_submission,Region III,Bulacan,BULACAN,BOCAUE,WAKAS,0,0,0
400702,"Friends of Jesus Christian School, Inc.",14.8095195,120.9272543,valid,,Region III,Bulacan,BULACAN,BOCAUE,TAAL,0,1,0
400703,Integrated School of Montessori,14.57929,121.06494,valid,,Region III,Bulacan,BULACAN,BOCAUE,IGULOT,1,0,0
400704,"Jesus Is Lord Colleges Foundation, Inc.",,,no_coords,no_submission,Region III,Bulacan,BULACAN,BOCAUE,BUNLO,0,0,0
400706,"Mt. Carmel College of Bocaue, Bulacan, Inc.",,,no_coords,no_submission,Region III,Bulacan,BULACAN,BOCAUE,BUNLO,0,0,0
400707,Nehemiah Standard Academy,14.0,120.0,valid,,Region III,Bulacan,BULACAN,BOCAUE,BATIA,0,0,0
400708,Our Lady of Fatima Academy,,,no_coords,no_submission,Region III,Bulacan,BULACAN,BOCAUE,SULUCAN,0,0,0
400709,St. Francis Lyceum,14.7964608008506,120.925530781987,valid,,Region III,Bulacan,BULACAN,BOCAUE,ANTIPONA,0,0,0
400710,"St. John Academy of Bayanihan, Inc.",14.57929,121.06494,valid,,Region III,Bulacan,BULACAN,BOCAUE,BAMBANG,1,1,0
400711,St. Paul College of Bocaue,14.79883,120.9377,valid,,Region III,Bulacan,BULACAN,BOCAUE,TURO,1,1,0
400712,Sto. Niño Academy,14.7955759,120.9309682,valid,,Region III,Bulacan,BULACAN,BOCAUE,BIÑANG 2ND,1,1,0
400713,Assumpta Academy,14.7957952341104,120.880226558327,valid,,Region III,Bulacan,BULACAN,BULACAN,SAN JOSE (POB.),1,1,0
400714,Bulacan Central Christian School,14.5611,120.88,valid,,Region III,Bulacan,BULACAN,BULACAN,BAGUMBAYAN,1,0,0
400715,Barnabbas Bulacan Cristian Academy,,,no_coords,no_submission,Region III,Bulacan,BULACAN,BULACAN,SAN NICOLAS,0,0,0
400716,"Bulacan Montessori School, Inc.",,,no_coords,no_submission,Region III,Bulacan,BULACAN,BULACAN,SANTA ANA,0,0,0
400717,Doña Trinidad Mendoza Institute,14.79571,120.87868,valid,,Region III,Bulacan,BULACAN,BULACAN,SAN JOSE (POB.),1,1,0
400718,Immaculate Conception School of Malolos,14.7772313,120.879979,valid,,Region III,Bulacan,BULACAN,BULACAN,BAMBANG,0,0,0
400721,Camchild Learning Center Corp.,,,no_coords,no_submission,Region III,Bulacan,BULACAN,BUSTOS,CAMBAOG,0,0,0
400722,"Colegio de Sto. Niño de Bustos, Inc.",,,no_coords,no_submission,Region III,Bulacan,BULACAN,BUSTOS,POBLACION,0,0,0
400723,Holy Child Academy,,,no_coords,no_submission,Region III,Bulacan,BULACAN,BUSTOS,POBLACION,0,0,0
400724,"Mary and Jesus School, Inc.",,,no_coords,no_submission,Region III,Bulacan,BULACAN,BUSTOS,TANAWAN,0,0,0
400725,Notre Christi Academy of the Philippines,,,no_coords,no_submission,Region III,Bulacan,BULACAN,BUSTOS,POBLACION,0,0,0
400729,Colegio de Calumpit,14.905709,120.766571,valid,,Region III,Bulacan,BULACAN,CALUMPIT,IBA O'ESTE,1,1,0
400730,"Harvesters' Missions International School, Inc.",14.8748,120.7866,valid,,Region III,Bulacan,BULACAN,CALUMPIT,LONGOS,0,1,0
400732,Petras Christian School,14.88581,120.77666,valid,,Region III,Bulacan,BULACAN,CALUMPIT,CALUMPANG,0,0,0
400733,Shalom Christian Academy of Bulacan,14.921561,120.766442,valid,,Region III,Bulacan,BULACAN,CALUMPIT,GATBUCA,0,0,0
400735,St. Anthony Academy of Bulacan,14.92311,120.76552,valid,,Region III,Bulacan,BULACAN,CALUMPIT,GATBUCA,1,0,0
400736,"St. John the Baptist Catholic School, Inc.",,,no_coords,no_submission,Region III,Bulacan,BULACAN,CALUMPIT,POBLACION,0,0,0
400738,"Cherubim Montessori School, Inc.",14.8370381,120.8911994,valid,,Region III,Bulacan,BULACAN,GUIGUINTO,TABE,1,0,0
400739,Academia de San Gabriel Archangel,14.869309,120.816491,valid,,Region III,Malolos City,BULACAN,CITY OF MALOLOS  (Capital),PINAGBAKAHAN,1,1,0
400742,"LKBP Integrated School, Inc.",14.866357,120.851349,valid,,Region III,Malolos City,BULACAN,CITY OF MALOLOS  (Capital),LIGAS,1,1,0
400743,Hankins Learning School,14.860017,120.857831,valid,,Region III,Bulacan,BULACAN,GUIGUINTO,SANTA RITA,0,0,0
400744,Immaculate Conception Seminary,14.83798,120.88502,valid,,Region III,Bulacan,BULACAN,GUIGUINTO,TABE,1,1,0
400745,Jesus Our Saviour Learning Center,14.8354,120.8783,fixed_swap,,Region III,Bulacan,BULACAN,GUIGUINTO,TABE,0,0,0
400749,San Ildefonso Learning Center,14.8280027415718,120.878820002882,valid,,Region III,Bulacan,BULACAN,GUIGUINTO,POBLACION,0,0,0
400750,St. Martin de Porres Catholic School of Guiguinto Inc,14.88,121.83,valid,,Region III,Bulacan,BULACAN,GUIGUINTO,POBLACION,1,1,0
400751,Centro de Malolos Institute,14.86484,120.82,valid,,Region III,Malolos City,BULACAN,CITY OF MALOLOS  (Capital),MOJON,1,1,0
400752,Darwin International School,,,no_coords,invalid,Region III,Malolos City,BULACAN,CITY OF MALOLOS  (Capital),LONGOS,0,0,0
400753,Stella Maris Academy of Malolos,14.57929,121.06494,valid,,Region III,Malolos City,BULACAN,CITY OF MALOLOS  (Capital),BULIHAN,1,0,0
400754,Godwin's Montessori School,14.828998,120.737508,valid,,Region III,Bulacan,BULACAN,HAGONOY,SAN SEBASTIAN,1,1,0
400758,St. Anne's Catholic School,,,no_coords,invalid,Region III,Bulacan,BULACAN,HAGONOY,SANTO NINO (POB.),1,1,0
400759,St. Mary's Academy of Hagonoy,14.83705,120.73408,valid,,Region III,Bulacan,BULACAN,HAGONOY,SANTO NINO (POB.),1,1,0
400761,AVM Montessori Center Inc.,14.8632816,120.8162759,valid,,Region III,Malolos City,BULACAN,CITY OF MALOLOS  (Capital),MOJON,0,0,0
400763,Bulacan Ecumenical School,14.8485016456865,120.814682982626,valid,,Region III,Malolos City,BULACAN,CITY OF MALOLOS  (Capital),LIYANG,1,1,0
400765,Merr-C Society Academy,14.8482018326654,120.806643710741,valid,,Region III,Malolos City,BULACAN,CITY OF MALOLOS  (Capital),CAINGIN,0,1,1
400766,"Malolos Adventist Elem. School, Inc.",14.84027,120.81114,valid,,Region III,Malolos City,BULACAN,CITY OF MALOLOS  (Capital),SANTO ROSARIO (POB.),0,0,0
400768,Immaculate Conception School of Malolos (Metropolis),14.88796,120.7902,valid,,Region III,Malolos City,BULACAN,CITY OF MALOLOS  (Capital),LONGOS,1,0,0
400771,Holy Infant School of Sta. Isabel,14.844553,120.836197,valid,,Region III,Malolos City,BULACAN,CITY OF MALOLOS  (Capital),BAGONG BAYAN,1,0,0
400773,"Holy Spirit Academy of Malolos, Inc.",14.84346,120.83593,valid,,Region III,Malolos City,BULACAN,CITY OF MALOLOS  (Capital),BAGONG BAYAN,1,1,0
400775,Immaculate Conception School for Boys,14.84251,120.81199,valid,,Region III,Malolos City,BULACAN,CITY OF MALOLOS  (Capital),SAN VICENTE (POB.),1,0,0
400776,International Montessori Center,14.8429,120.8371,valid,,Region III,Malolos City,BULACAN,CITY OF MALOLOS  (Capital),BAGONG BAYAN,0,0,0
400778,St. John Early Learning Center,6.682309,124.672743,valid,,Region XII,Tacurong City,SULTAN KUDARAT,CITY OF TACURONG,NEW ISABELA,1,1,0
400779,"VMC Asian College Foundation,Inc.",6.686406,124.673691,valid,,Region XII,Tacurong City,SULTAN KUDARAT,CITY OF TACURONG,POBLACION,1,1,1
400780,"Lord's Angels Montessori School, Inc",14.8599068962089,120.806784294631,valid,,Region III,Malolos City,BULACAN,CITY OF MALOLOS  (Capital),BULIHAN,1,1,0
400781,Ma. Therese Montessori School,14.8541976929165,120.811777152142,valid,,Region III,Malolos City,BULACAN,CITY OF MALOLOS  (Capital),BULIHAN,0,0,0
400782,Malolos Christian School,14.83114,120.82012,valid,,Region III,Malolos City,BULACAN,CITY OF MALOLOS  (Capital),SANTO CRISTO,0,0,0
400783,Malolos Ecumenical Kindergarten Inc.,,,no_coords,invalid,Region III,Malolos City,BULACAN,CITY OF MALOLOS  (Capital),LIYANG,0,0,0
400784,"Mary the Queen School of Malolos, Inc.",14.84089,120.81223,valid,,Region III,Malolos City,BULACAN,CITY OF MALOLOS  (Capital),SANTO ROSARIO (POB.),1,1,0
400785,Montessori School of Malolos,14.8427482,120.8482904,valid,,Region III,Malolos City,BULACAN,CITY OF MALOLOS  (Capital),SAN PABLO,1,0,0
400786,"Children's Grace of Mary Tutorial and Learning Center, Inc.",6.667073,124.680852,valid,,Region XII,Tacurong City,SULTAN KUDARAT,CITY OF TACURONG,CARMEN,0,1,0
400788,Valencia School of the Morning Star,7.91574218130904,125.091330894312,valid,,Region X,Valencia City,BUKIDNON,CITY OF VALENCIA,POBLACION,1,1,0
400790,St. Joseph Parochial School,14.8216130021186,120.827598940011,valid,,Region III,Malolos City,BULACAN,CITY OF MALOLOS  (Capital),PANASAHAN,0,0,0
400792,IBA College of Mindanao,7.90954,125.08494,valid,,Region X,Valencia City,BUKIDNON,CITY OF VALENCIA,POBLACION,1,1,1
400793,"Valencia Baptist Christian Academy, Inc.",7.09485,125.09344,valid,,Region X,Valencia City,BUKIDNON,CITY OF VALENCIA,POBLACION,1,1,0
400795,La Consolacion University Philippines,14.8531205281245,120.813076003116,valid,,Region III,Malolos City,BULACAN,CITY OF MALOLOS  (Capital),CATMON,1,1,0
400796,Apo Lakeside SDA  School,,,no_coords,no_submission,Region X,Valencia City,BUKIDNON,CITY OF VALENCIA,GUINOYURAN,0,0,0
400797,"Liberty Bible Baptist Academy, Valencia, Inc.",,,no_coords,no_submission,Region X,Valencia City,BUKIDNON,CITY OF VALENCIA,POBLACION,0,0,0
400799,Discovery Child Dev't. of Montessori,14.75305,120.95682,valid,,Region III,Bulacan,BULACAN,MARILAO,IBAYO,0,0,0
400800,"Harvesters Baptist Academy of Sta. Rosa City, Inc.",14.3261303,121.0970137,valid,,Region IV-A,Sta. Rosa City,LAGUNA,CITY OF SANTA ROSA,TAGAPO,0,0,0
400801,"Divine Word School of Marilao, Inc.",,,no_coords,no_submission,Region III,Bulacan,BULACAN,MARILAO,LOMA DE GATO,0,0,0
400803,"International Montessori School (IMS) Sta. Rosa, Laguna, Inc.",14.2909141,121.1158401,valid,,Region IV-A,Sta. Rosa City,LAGUNA,CITY OF SANTA ROSA,DILA,0,0,0
400804,Sta. Rosa Educational Institution,14.31878,121.11271,valid,,Region IV-A,Sta. Rosa City,LAGUNA,CITY OF SANTA ROSA,MARKET AREA (POB.),1,1,0
400805,Seven Pillars Catholic School,14.2637128470675,121.075743195683,valid,,Region IV-A,Sta. Rosa City,LAGUNA,CITY OF SANTA ROSA,DON JOSE,0,0,0
400806,"Angelicum Academy of Heritage Marilao, Inc.",14.779965,121.018908,valid,,Region III,Bulacan,BULACAN,MARILAO,LOMA DE GATO,1,1,0
400807,Heritage Bible Baptist Christian Academy,,,no_coords,no_submission,Region III,Bulacan,BULACAN,MARILAO,LOMA DE GATO,0,0,0
400808,"Holy Lamb Academy, Inc.",14.7820054507826,120.961553641107,valid,,Region III,Bulacan,BULACAN,MARILAO,PATUBIG,1,0,0
400809,"Jocelyn V. Cacas Montessori School, Inc.",,,no_coords,no_submission,Region III,Bulacan,BULACAN,MARILAO,LOMA DE GATO,0,0,0
400810,KAV Knowledge and Virtue Academy,14.7726611,120.9795738,valid,,Region III,Bulacan,BULACAN,MARILAO,LAMBAKIN,1,1,0
400811,"Angelican School of Marilao, Inc.",14.7574,120.9478,valid,,Region III,Bulacan,BULACAN,MARILAO,POBLACION II,1,0,0
400815,Green Fields Integrated School of Laguna,14.27642,121.098097,valid,,Region IV-A,Sta. Rosa City,LAGUNA,CITY OF SANTA ROSA,DITA,1,1,0
400816,"Mother Teresa Academy of Marilao, Bulacan Inc.",,,no_coords,no_submission,Region III,Bulacan,BULACAN,MARILAO,POBLACION II,0,0,0
400817,"Academia de Maria Elena, Inc.",,,no_coords,no_submission,Region IV-A,Sta. Rosa City,LAGUNA,CITY OF SANTA ROSA,MALITLIT,0,0,0
400819,"Seed Academy Foundation, Inc.",14.77475,120.97861,valid,,Region III,Bulacan,BULACAN,MARILAO,LAMBAKIN,1,1,0
400820,"Dominican College of Sta. Rosa, Laguna Inc.",14.2815,121.0991,valid,,Region IV-A,Sta. Rosa City,LAGUNA,CITY OF SANTA ROSA,DITA,1,1,0
400823,St. Michael School of Marilao,14.76388,120.94226,valid,,Region III,Bulacan,BULACAN,MARILAO,ABANGAN SUR,1,1,1
400824,St. Therese School of Marilao,,,no_coords,no_submission,Region III,Bulacan,BULACAN,MARILAO,LOMA DE GATO,0,0,0
400825,Sta. Faustina Academy,14.7829,120.9835,valid,,Region III,Bulacan,BULACAN,MARILAO,PRENZA I,0,0,0
400826,"Team Mission Christian School, Inc.",14.767369,120.974304,valid,,Region III,Bulacan,BULACAN,MARILAO,LAMBAKIN,1,1,0
400828,LNC-Corinthian Center,14.29137,121.09643,valid,,Region IV-A,Sta. Rosa City,LAGUNA,CITY OF SANTA ROSA,BALIBAGO,1,1,1
400830,"SISTECH College of Santiago City, Inc",,,no_coords,out_of_bounds,Region II,Santiago City,ISABELA,CITY OF SANTIAGO,VILLASIS,0,0,0
400831,Marymount Professional Colleges,14.57929,121.06494,valid,,Region III,Meycauayan City,BULACAN,CITY OF MEYCAUAYAN,BANGA,1,1,0
400833,"Faith of Mary Academy of Meycauayan, Inc.",14.759015,120.972723,valid,,Region III,Meycauayan City,BULACAN,CITY OF MEYCAUAYAN,PANDAYAN,0,0,0
400834,Don Jose Ecleo MFCST,10.0133147477067,125.579854377642,valid,,CARAGA,Dinagat Island,DINAGAT ISLANDS,SAN JOSE (Capital),JUSTINIANA EDERA,1,1,0
400836,John Paul Benedict School of Meycauayan Inc.,14.7415405205594,120.973495588746,valid,,Region III,Meycauayan City,BULACAN,CITY OF MEYCAUAYAN,MALHACAN,1,1,1
400837,Marychild Academy,14.731228,120.9799015,valid,,Region III,Meycauayan City,BULACAN,CITY OF MEYCAUAYAN,LAWA,0,0,0
400838,Metamorphosis School Inc.,14.721932,120.960856,valid,,Region III,Meycauayan City,BULACAN,CITY OF MEYCAUAYAN,BANCAL,0,0,0
400839,"MEYCAUAYAN COLLEGE, INC.",14.734136,120.961587,valid,,Region III,Meycauayan City,BULACAN,CITY OF MEYCAUAYAN,CALVARIO,1,1,0
400840,Meycauayan Adventist Elem. School,14.73692,120.96287,valid,,Region III,Meycauayan City,BULACAN,CITY OF MEYCAUAYAN,MALHACAN,0,0,0
400841,Montessori de Sto. Nino of Meycauayan,14.7658,121.0016,valid,,Region III,Meycauayan City,BULACAN,CITY OF MEYCAUAYAN,PEREZ,0,0,0
400842,"Nazarenus College and Hospital Foundation, Inc.",14.75192,120.95553,valid,,Region III,Meycauayan City,BULACAN,CITY OF MEYCAUAYAN,SALUYSOY,1,1,0
400844,"Bai Malgen Mama Foundation College, Inc.",,,no_coords,no_submission,BARMM,Maguindanao II,MAGUINDANAO,DATU ODIN SINSUAT (DINAIG),CAPITON,0,0,0
400845,San Isidro-San Roque Academy,14.74135,120.96938,valid,,Region III,Meycauayan City,BULACAN,CITY OF MEYCAUAYAN,MALHACAN,1,0,0
400846,San Lorenzo Ruiz School,14.754913,120.967224,valid,,Region III,Meycauayan City,BULACAN,CITY OF MEYCAUAYAN,PANDAYAN,0,0,0
400849,"Sophia School, Inc.",14.73396,120.95951,valid,,Region III,Meycauayan City,BULACAN,CITY OF MEYCAUAYAN,CALVARIO,1,1,1
400853,St. Mary's Academy of Sto. Nino,14.7669339,120.9956952,valid,,Region III,Meycauayan City,BULACAN,CITY OF MEYCAUAYAN,CAMALIG,1,1,0
400854,St. Mary's College of Meycauayan,14.7396591006263,120.959614760413,valid,,Region III,Meycauayan City,BULACAN,CITY OF MEYCAUAYAN,SALUYSOY,1,1,0
400855,St. Michael Academy,14.7561,120.9663,valid,,Region III,Meycauayan City,BULACAN,CITY OF MEYCAUAYAN,PEREZ,1,1,0
400857,"Notre Dame of Jolo College, Inc.",,,no_coords,no_submission,BARMM,Sulu,SULU,JOLO (Capital),WALLED CITY (POB.),0,0,0
400858,The Cardinal Academy,14.74781,120.96408,valid,,Region III,Meycauayan City,BULACAN,CITY OF MEYCAUAYAN,PANDAYAN,1,1,0
400859,Trinitas College,14.7626,120.9867,valid,,Region III,Meycauayan City,BULACAN,CITY OF MEYCAUAYAN,PANTOC,1,1,0
400860,Data Center College of the Philippines,,,no_coords,no_submission,CAR,Abra,ABRA,BANGUED (Capital),LIPCAN,0,0,0
400861,AMA Computer College-Baguio City,16.40194,120.59452,valid,,CAR,Baguio City,BENGUET,BAGUIO CITY,NEW LUCBAN,0,1,0
400862,"Norzagaray Academy , Inc.",,,no_coords,no_submission,Region III,Bulacan,BULACAN,NORZAGARAY,POBLACION,0,0,0
400863,"Norzagaray Adventist Elementary School, Inc.",,,no_coords,no_submission,Region III,Bulacan,BULACAN,NORZAGARAY,POBLACION,0,0,0
400864,"St. Martin de Porres Catholic School, Norzagaray",14.90989,121.04882,valid,,Region III,Bulacan,BULACAN,NORZAGARAY,POBLACION,1,1,0
400865,Colegio de San Pascual Baylon,14.71056,120.93694,valid,,Region III,Bulacan,BULACAN,OBANDO,PAG-ASA (POB.),1,1,0
400867,Baguio College of Technology,16.4123133789738,120.596206017804,valid,,CAR,Baguio City,BENGUET,BAGUIO CITY,HARRISON-CLAUDIO CARANTES,0,1,1
400868,"Obando Montessori, Inc.",,,no_coords,no_submission,Region III,Bulacan,BULACAN,OBANDO,LAWA,0,0,0
400869,"BSBT College, Inc.",16.43001,120.59657,valid,,CAR,Baguio City,BENGUET,BAGUIO CITY,"MAGSAYSAY, LOWER",1,1,1
400871,St. Clement Academy,14.874461,120.82549,valid,,Region III,Malolos City,BULACAN,CITY OF MALOLOS  (Capital),SANTISIMA TRINIDAD,1,1,0
400874,Christian Academy of Pandi,,,no_coords,no_submission,Region III,Bulacan,BULACAN,PANDI,BUNSURAN II,0,0,0
400875,Gentle Shepherd Montessori,,,no_coords,no_submission,Region III,Bulacan,BULACAN,PANDI,SILING MATANDA,0,0,0
400876,"Holy Angels' College (Bulacan), Inc.",,,no_coords,no_submission,Region III,Bulacan,BULACAN,PANDI,POBLACION,0,0,0
400877,"Immaculate Conception Child Development Center, Inc.",14.8656879217589,120.953220885921,valid,,Region III,Bulacan,BULACAN,PANDI,POBLACION,1,1,0
400879,Montessori Academy of Malibu (Pandi),,,no_coords,no_submission,Region III,Bulacan,BULACAN,PANDI,MALIBONG MATANDA,0,0,0
400880,"Paombong High School, Inc.",14.834681,120.787248,valid,,Region III,Bulacan,BULACAN,PAOMBONG,POBLACION,1,1,0
400881,"St. Martin de Porres Catholic School, Paombong",14.836044,120.787904,valid,,Region III,Bulacan,BULACAN,PAOMBONG,POBLACION,1,1,0
400883,"Data Center College of the Philippines of Baguio City, Inc.",16.4152,120.5995,valid,,CAR,Baguio City,BENGUET,BAGUIO CITY,A. BONIFACIO-CAGUIOA-RIMANDO (ABCR),0,1,1
400885,Bethel Christian Academy,14.882527,120.86831,valid,,Region III,Bulacan,BULACAN,PLARIDEL,BANGA I,0,1,0
400886,Colegio de Immaculada Concepcion,,,no_coords,no_submission,Region III,Bulacan,BULACAN,PLARIDEL,BULIHAN,0,0,0
400888,"Jesus is Lord Christian School, Plaridel",,,no_coords,no_submission,Region III,Bulacan,BULACAN,PLARIDEL,AGNAYA,0,0,0
400889,"Informatics Baguio City Center, Inc.",16.41803,120.59635,valid,,CAR,Baguio City,BENGUET,BAGUIO CITY,ANDRES BONIFACIO (LOWER BOKAWKAN),0,1,1
400890,"Lord's Angels Montessori School, Inc.",14.8599068962089,120.806784294631,valid,,Region III,Bulacan,BULACAN,PLARIDEL,TABANG,1,1,0
400892,Mayi Montessori School,,,no_coords,no_submission,Region III,Bulacan,BULACAN,PLARIDEL,TABANG,0,0,0
400893,Mondriaan Aura Montessori School,,,no_coords,no_submission,Region III,Bulacan,BULACAN,PLARIDEL,TABANG,0,0,0
400894,PBC Sunbeam School INC.,,,no_coords,no_submission,Region III,Bulacan,BULACAN,PLARIDEL,BINTOG,0,0,0
400898,"St. Francis de Assisi Montessori School (Plaridel, Bulacan) Inc.",,,no_coords,no_submission,Region III,Bulacan,BULACAN,PLARIDEL,BANGA II,0,0,0
400899,"St. James Academy, Plaridel, Bulacan, Inc.",14.879801,120.857864,valid,,Region III,Bulacan,BULACAN,PLARIDEL,SANTA INES,1,1,0
400901,"Colegio de Santa Philomena, Inc.",14.9018,120.85585,valid,,Region III,Bulacan,BULACAN,PULILAN,PALTAO,1,1,0
400905,His Sanctuary Christian Academy,,,no_coords,invalid,Region III,Bulacan,BULACAN,PULILAN,POBLACION,0,0,0
400906,STI College - Baguio,16.42109,120.59724,valid,,CAR,Baguio City,BENGUET,BAGUIO CITY,NEW LUCBAN,1,1,0
400907,"Holy Angels Colleges of Pulilan, Inc.",,,no_coords,no_submission,Region III,Bulacan,BULACAN,PULILAN,PALTAO,0,0,0
400908,Liceo de Pulilan Colleges,,,no_coords,no_submission,Region III,Bulacan,BULACAN,PULILAN,LONGOS,0,0,0
400909,Mary Chiles College of Arts and Sciences,,,no_coords,out_of_bounds,Region III,Bulacan,BULACAN,PULILAN,LUMBAC,1,1,1
400910,"Montessori School of Pulilan, Inc.",14.903681,120.850114,valid,,Region III,Bulacan,BULACAN,PULILAN,POBLACION,0,0,0
400912,BVS Colleges,16.4485,120.59,valid,,CAR,Benguet,BENGUET,LA TRINIDAD (Capital),PICO,0,1,1
400914,St. Dominic Academy (Day/Night),14.903191,120.849685,valid,,Region III,Bulacan,BULACAN,PULILAN,POBLACION,1,1,0
400915,"St. Gabriel Academy of Pulilan, Inc.",14.90271,120.85289,valid,,Region III,Bulacan,BULACAN,PULILAN,PALTAO,0,0,0
400916,"Liceo de Buenavista , Inc.",,,no_coords,no_submission,Region III,Bulacan,BULACAN,SAN ILDEFONSO,POBLACION,0,0,0
400917,Colegio de San Barachiel,15.071698,120.921187,valid,,Region III,Bulacan,BULACAN,SAN ILDEFONSO,CALAWITAN,1,0,0
400918,Goldenville School of Montessori,,,no_coords,no_submission,Region III,Bulacan,BULACAN,SAN ILDEFONSO,MATIMBUBONG,0,0,0
400919,Lord of Lords Ministry School,,,no_coords,no_submission,Region III,Bulacan,BULACAN,SAN ILDEFONSO,SAPANG PUTOL,0,0,0
400920,Montessori de San Ildefonso,15.083128,120.945097,valid,,Region III,Bulacan,BULACAN,SAN ILDEFONSO,SAN JUAN,1,1,0
400922,Saint John School,,,no_coords,no_submission,Region III,Bulacan,BULACAN,SAN ILDEFONSO,SAN JUAN,0,0,0
400924,Veritas Learning Center,,,no_coords,no_submission,Region III,Bulacan,BULACAN,SAN ILDEFONSO,POBLACION,0,0,0
400925,Philippine Nazarene College,,,no_coords,no_submission,CAR,Benguet,BENGUET,LA TRINIDAD (Capital),PICO,0,0,0
400927,International School of Asia and the Pacific-Kalinga Campus,17.425964,121.477675,valid,,CAR,Tabuk City,KALINGA,CITY OF TABUK (Capital),IPIL,0,1,0
400928,Park Ridge School of Montesori,,,no_coords,no_submission,Region III,Bulacan,BULACAN,SAN MIGUEL,CAMIAS,0,0,0
400929,"School of Mount St. Mary, Inc.",,,no_coords,no_submission,Region III,Bulacan,BULACAN,SAN MIGUEL,SANTA RITA MATANDA,0,0,0
400930,St. Paul University at San Miguel (SPUQC Branch),15.13,120.96,valid,,Region III,Bulacan,BULACAN,SAN MIGUEL,SALANGAN,1,1,0
400932,Caingin Ecumenical School Inc.,,,no_coords,no_submission,Region III,Bulacan,BULACAN,SAN RAFAEL,CAINGIN,0,0,0
400934,"Sanctuario of St. Maria Theresa School, San Rafael",,,no_coords,no_submission,Region III,Bulacan,BULACAN,SAN RAFAEL,TAMBUBONG,0,0,0
400935,"St. Luke School of San Rafael, Inc.",,,no_coords,no_submission,Region III,Bulacan,BULACAN,SAN RAFAEL,SAMPALOC,0,0,0
400936,"St. Paul College, San Rafael, Inc.",,,no_coords,invalid,Region III,Bulacan,BULACAN,SAN RAFAEL,PANTUBIG,1,1,0
400937,"Montessori de San Rafael, Inc.",,,no_coords,no_submission,Region III,Bulacan,BULACAN,SAN RAFAEL,MABALAS-BALAS,0,0,0
400938,"Sto. Niño Academy of San Rafael, Inc.",,,no_coords,no_submission,Region III,Bulacan,BULACAN,SAN RAFAEL,SAMPALOC,0,0,0
400939,Cordillera A+ Computer Technology College,17.4708861,121.4636579,valid,,CAR,Tabuk City,KALINGA,CITY OF TABUK (Capital),DAGUPAN WESTE,0,1,0
400941,Christ Jezus Montessori School Inc,14.82327,120.96135,valid,,Region III,Bulacan,BULACAN,SANTA MARIA,POBLACION,1,1,0
400942,ABE International Business College - Caloocan Campus,,,no_coords,invalid,NCR,Caloocan City,NCR   THIRD DISTRICT,KALOOKAN CITY,BARANGAY 86,1,1,0
400944,Darwin International School,,,no_coords,no_submission,Region III,Bulacan,BULACAN,SANTA MARIA,GUYONG,0,0,0
400945,"Early Christian College of Arts and Technology, Inc.",14.8194032,120.9619991,valid,,Region III,Bulacan,BULACAN,SANTA MARIA,POBLACION,1,1,0
400949,Grace Christian Academy Ministries of Baliuag,14.9613756,120.9053333,valid,,Region III,City of Baliwag,BULACAN,BALIUAG,SABANG,0,0,0
400950,"Grace of Shekinah School, Inc.",,,no_coords,no_submission,Region III,Bulacan,BULACAN,SANTA MARIA,POBLACION,0,0,0
400951,AMA Computer Learning Center of Caloocan City,14.65696,120.98771,valid,,NCR,Caloocan City,NCR   THIRD DISTRICT,KALOOKAN CITY,BARANGAY 86,0,1,0
400954,"Holy Child Montessori School of Bulacan, Inc.",14.81276,120.98224,valid,,Region III,Bulacan,BULACAN,SANTA MARIA,PARADA,1,0,0
400956,Immaculate Heart of Mary Integrated School,,,no_coords,out_of_bounds,Region III,Bulacan,BULACAN,SANTA MARIA,PULONG BUHANGIN,1,0,0
400958,"Jesus Lord & Savior Christian Colleges Foundation, Inc.",,,no_coords,no_submission,Region III,Bulacan,BULACAN,SANTA MARIA,GUYONG,0,0,0
400959,"Colegio de San Gabriel Arcangel of Caloocan, Inc.",14.78066,121.03427,valid,,NCR,Caloocan City,NCR   THIRD DISTRICT,KALOOKAN CITY,BARANGAY 176,1,1,0
400961,Liceo di San Lorenzo,,,no_coords,no_submission,Region III,Bulacan,BULACAN,SANTA MARIA,PULONG BUHANGIN,0,0,0
400963,Smarties Academy of Sta. Maria,,,no_coords,no_submission,Region III,Bulacan,BULACAN,SANTA MARIA,POBLACION,0,0,0
400964,Nuestra Señora del Carmen Institute,,,no_coords,no_submission,Region III,Bulacan,BULACAN,SANTA MARIA,PULONG BUHANGIN,0,0,0
400965,Mater Dei Academy,14.88274,121.00561,valid,,Region III,Bulacan,BULACAN,SANTA MARIA,PULONG BUHANGIN,1,1,0
400967,"Lady of Lourdes Hospital & Colleges of Caybiga, Inc.",14.71924,121.00685,valid,,NCR,Caloocan City,NCR   THIRD DISTRICT,KALOOKAN CITY,BARANGAY 166,0,1,1
400969,Sacred Heart Academy,14.8167,120.9583,valid,,Region III,Bulacan,BULACAN,SANTA MARIA,POBLACION,1,1,1
400970,San Isidro Labrador Academy of Brgy Buenavista,14.7978537281262,120.993864585305,valid,,Region III,Bulacan,BULACAN,SANTA MARIA,BUENAVISTA,1,0,0
400974,St. Paul School of Sta. Maria,14.57929,121.06494,fixed_swap,,Region III,Bulacan,BULACAN,SANTA MARIA,POBLACION,0,0,0
400975,St. Vincent Learning Academy,14.80774,121.00442,valid,,Region III,Bulacan,BULACAN,SANTA MARIA,SAN VICENTE,1,1,0
400977,Channel of Dreams Christian Academy-Bulacan,,,no_coords,no_submission,Region III,Bulacan,BULACAN,SANTA MARIA,CAY POMBO,0,0,0
400978,STI College - Caloocan,14.6522,120.984,valid,,NCR,Caloocan City,NCR   THIRD DISTRICT,KALOOKAN CITY,BARANGAY 2,1,1,0
400979,Aliaga Ecumenical School,14.57929,121.06494,valid,,Region III,Nueva Ecija,NUEVA ECIJA,ALIAGA,POBLACION CENTRO,0,0,0
400980,"Aliaga Bright Minds Academy, Inc.",15.50012,120.83957,valid,,Region III,Nueva Ecija,NUEVA ECIJA,ALIAGA,POBLACION WEST IV,0,0,0
400982,Living Water Essential College Inc.,15.634509,121.144327,valid,,Region III,Nueva Ecija,NUEVA ECIJA,BONGABON,PALO MARIA (POB.),1,1,0
400985,St. Francis of Assisi Diocesan School (SFADS),16.62787,121.14206,valid,,Region III,Nueva Ecija,NUEVA ECIJA,BONGABON,SISILANG NA LIGAYA (POB.),1,0,0
