school_id,school_name,latitude,longitude,coord_status,coord_rejection_reason,region,old_region,division,province,municipality,barangay,esc_participating,shsvp_participating,jdvp_participating,enrollment_status,school_management,annex_status,offers_es,offers_jhs,offers_shs,shs_strand_offerings,psgc_region,psgc_region_name,psgc_province,psgc_province_name,psgc_municity,psgc_municity_name,psgc_barangay,psgc_barangay_name,psgc_observed_barangay,psgc_validation,urban_rural,income_class
400000,"REESFI EDUCATION CENTER, INC.",10.008507,125.577687,valid,,CARAGA,CARAGA,Dinagat Island,DINAGAT ISLANDS,SAN JOSE (Capital),AURELIO,0,0,0,active,Non-Sectarian,Standalone School,True,False,False,,1600000000,Region XIII (Caraga),1608500000,Dinagat Islands,1608506000,San Jose ,1608506001,Aurelio,1608506001,psgc_match,R,4th
400001,"St. Andrew Academy of Bacarra, Inc.",18.25099,120.61212,valid,,Region I,Region I,Ilocos Norte,ILOCOS NORTE,BACARRA,SANTA RITA (POB.),1,1,0,active,Sectarian,Standalone School,False,True,True,GAS,0100000000,Region I (Ilocos Region),0102800000,Ilocos Norte,0102802000,Bacarra,0102802046,Santa Rita,0102802046,psgc_match,R,2nd
400002,"Badoc Junior College, Inc.",17.92755,120.47674,valid,,Region I,Region I,Ilocos Norte,ILOCOS NORTE,BADOC,CANAAN (POB.),1,1,0,active,Non-Sectarian,Standalone School,False,True,True,"ABM,TVL",0100000000,Region I (Ilocos Region),0102800000,Ilocos Norte,0102803000,Badoc,0102803008,Canaan ,0102803008,psgc_match,R,1st
400003,"IGAMA Colleges Foundation, Inc.",14.57929,121.06494,suspect,placeholder_default,Region I,Region I,Ilocos Norte,ILOCOS NORTE,BADOC,GARRETA (POB.),1,1,1,active,Non-Sectarian,Standalone School,True,True,True,"ABM,HUMSS,STEM,TVL",0100000000,Region I (Ilocos Region),0102800000,Ilocos Norte,0102803000,Badoc,0102803013,Garreta ,1381200013,psgc_mismatch,U,1st
400004,"Juan Luna Memorial Academy, Inc.",17.92804,120.47454,valid,,Region I,Region I,Ilocos Norte,ILOCOS NORTE,BADOC,ALOGOOG,1,1,0,active,Non-Sectarian,Standalone School,False,True,True,"GAS,STEM",0100000000,Region I (Ilocos Region),0102800000,Ilocos Norte,0102803000,Badoc,0102803002,Alogoog,0102803002,psgc_match,R,1st
400005,St. Elizabeth Elementary School,17.92759,120.4753,valid,,Region I,Region I,Ilocos Norte,ILOCOS NORTE,BADOC,GARRETA (POB.),0,0,0,active,Sectarian,Standalone School,True,False,False,,0100000000,Region I (Ilocos Region),0102800000,Ilocos Norte,0102803000,Badoc,0102803013,Garreta ,0102803008,psgc_mismatch,U,1st
400006,"St. Lawrence the Deacon Academy of Bangui, Ilocos Norte, Inc.",18.5368275,120.7655268,valid,,Region I,Region I,Ilocos Norte,ILOCOS NORTE,BANGUI,SAN LORENZO (POB.),1,1,1,active,Sectarian,Standalone School,False,True,True,GAS,0100000000,Region I (Ilocos Region),0102800000,Ilocos Norte,0102804000,Bangui,0102804012,San Lorenzo ,0102804012,psgc_match,R,2nd
400007,"Batac Institute, Inc.",18.0537871583226,120.56602170017,valid,,Region I,Region I,Batac City,ILOCOS NORTE,CITY OF BATAC,VALDEZ POB. (CAOAYAN),1,1,0,active,Non-Sectarian,Standalone School,False,True,True,"GAS,TVL",0100000000,Region I (Ilocos Region),0102800000,Ilocos Norte,0102805000,City of Batac,0102805018,Valdez Pob.,0102805018,psgc_match,R,3rd
400008,Batac Junior College,18.05532,120.5653,valid,,Region I,Region I,Batac City,ILOCOS NORTE,CITY OF BATAC,VALDEZ POB. (CAOAYAN),1,1,0,active,Non-Sectarian,Standalone School,True,True,True,"ABM,GAS,HUMSS,STEM,TVL",0100000000,Region I (Ilocos Region),0102800000,Ilocos Norte,0102805000,City of Batac,0102805018,Valdez Pob.,0102805018,psgc_match,R,3rd
400009,Eureka High School,18.0568,120.5628,valid,,Region I,Region I,Batac City,ILOCOS NORTE,CITY OF BATAC,CAUNAYAN (POB.),0,0,0,active,Non-Sectarian,Standalone School,False,True,False,,0100000000,Region I (Ilocos Region),0102800000,Ilocos Norte,0102805000,City of Batac,0102805017,Caunayan ,0102805024,psgc_mismatch,U,3rd
400010,Immaculate Concepcion Academy,18.05457,120.5644,valid,,Region I,Region I,Batac City,ILOCOS NORTE,CITY OF BATAC,VALDEZ POB. (CAOAYAN),1,1,0,active,Sectarian,Standalone School,True,True,True,"ABM,HUMSS,STEM,TVL",0100000000,Region I (Ilocos Region),0102800000,Ilocos Norte,0102805000,City of Batac,0102805018,Valdez Pob.,0102805018,psgc_match,R,3rd
400011,"Dingras Faith Academy, Inc.",18.104694,120.698502,valid,,Region I,Region I,Ilocos Norte,ILOCOS NORTE,DINGRAS,MADAMBA (POB.),1,0,0,active,Non-Sectarian,Standalone School,True,True,False,,0100000000,Region I (Ilocos Region),0102800000,Ilocos Norte,0102809000,Dingras,0102809016,Madamba ,0102809016,psgc_match,R,1st
400012,"St. Joseph Institute of Dingras, Inc.",18.1034579,120.6987066,valid,,Region I,Region I,Ilocos Norte,ILOCOS NORTE,DINGRAS,MADAMBA (POB.),1,1,0,active,Non-Sectarian,Standalone School,False,True,True,"HUMSS,STEM,TVL",0100000000,Region I (Ilocos Region),0102800000,Ilocos Norte,0102809000,Dingras,0102809016,Madamba ,0102809016,psgc_match,R,1st
400013,Banna Academy Inc.,17.9827694,120.6555925,valid,,Region I,Region I,Ilocos Norte,ILOCOS NORTE,BANNA (ESPIRITU),VALENCIANO (POB.),1,1,0,active,Non-Sectarian,Standalone School,False,True,True,"GAS,STEM,TVL",0100000000,Region I (Ilocos Region),0102800000,Ilocos Norte,0102811000,Banna,0102811021,Valenciano ,0102811021,psgc_match,R,1st
400014,St. Gabriel Catholic School,,,no_coords,no_submission,Region I,Region I,Ilocos Norte,ILOCOS NORTE,NUEVA ERA,POBLACION,0,0,0,active,Sectarian,Standalone School,True,False,False,,0100000000,Region I (Ilocos Region),0102800000,Ilocos Norte,0102814000,Nueva Era,0102814009,Poblacion,,psgc_no_validation,R,1st
400015,St. Jude High School of Pagudpud Ilocos Norte Inc,18.56314,120.78684,valid,,Region I,Region I,Ilocos Norte,ILOCOS NORTE,PAGUDPUD,POBLACION  2,1,1,0,active,Sectarian,Standalone School,False,True,True,"GAS,STEM",0100000000,Region I (Ilocos Region),0102800000,Ilocos Norte,0102815000,Pagudpud,0102815013,Poblacion 2,0102815013,psgc_match,U,1st
400016,"Paoay North Institute, Inc.",18.0608,120.52272,valid,,Region I,Region I,Ilocos Norte,ILOCOS NORTE,PAOAY,CABANGARAN,1,1,0,active,Non-Sectarian,Standalone School,False,True,True,GAS,0100000000,Region I (Ilocos Region),0102800000,Ilocos Norte,0102816000,Paoay,0102816003,Cabangaran,0102816003,psgc_match,R,2nd
400017,"Pasuquin High School of Ilocos Norte,Inc.",18.3319057,120.6176694,fixed_swap,,Region I,Region I,Ilocos Norte,ILOCOS NORTE,PASUQUIN,POBLACION 3,1,1,0,active,Non-Sectarian,Standalone School,False,True,True,GAS,0100000000,Region I (Ilocos Region),0102800000,Ilocos Norte,0102817000,Pasuquin,0102817020,Poblacion 3,0102817020,psgc_match,R,1st
400018,"St. James Academy of PasuquinIlocos Norte, Inc.",,,no_coords,invalid,Region I,Region I,Ilocos Norte,ILOCOS NORTE,PASUQUIN,POBLACION 2,1,1,0,active,Sectarian,Standalone School,True,True,True,"ABM,HUMSS,TVL",0100000000,Region I (Ilocos Region),0102800000,Ilocos Norte,0102817000,Pasuquin,0102817019,Poblacion 2,,psgc_no_validation,R,1st
400019,Roosevelt High School of Piddig Inc.,18.163109,120.718248,valid,,Region I,Region I,Ilocos Norte,ILOCOS NORTE,PIDDIG,LOING (POB.),1,1,0,active,Non-Sectarian,Standalone School,False,True,True,"ABM,GAS",0100000000,Region I (Ilocos Region),0102800000,Ilocos Norte,0102818000,Piddig,0102818015,Loing ,0102818015,psgc_match,R,1st
400020,"Saint Anne Academy of Piddig, Ilocos Norte, Inc.",18.1656263,120.7170606,valid,,Region I,Region I,Ilocos Norte,ILOCOS NORTE,PIDDIG,CABAROAN (POB.),1,1,0,active,Sectarian,Standalone School,False,True,True,"ABM,GAS,HUMSS",0100000000,Region I (Ilocos Region),0102800000,Ilocos Norte,0102818000,Piddig,0102818007,Cabaroan ,0102818007,psgc_match,R,1st
400021,Pinili Institute,17.9518837,120.5265738,valid,,Region I,Region I,Ilocos Norte,ILOCOS NORTE,PINILI,VALBUENA (POB.),1,1,0,active,Non-Sectarian,Standalone School,False,True,True,"GAS,TVL",0100000000,Region I (Ilocos Region),0102800000,Ilocos Norte,0102819000,Pinili,0102819025,Valbuena ,0102819025,psgc_match,R,1st
400022,"Sta. Rosa Academy of San Nicolas Ilocos Norte, Inc.",18.333,120.433,valid,,Region I,Region I,Ilocos Norte,ILOCOS NORTE,SAN NICOLAS,SAN ILDEFONSO (POB.),1,1,0,active,Sectarian,Standalone School,True,True,True,GAS,0100000000,Region I (Ilocos Region),0102800000,Ilocos Norte,0102820000,San Nicolas,0102820002,San Ildefonso ,,psgc_no_validation,R,1st
400023,"Gov. Roque B. Ablan Sr. Mem. Academy, Inc.",18.09675,120.77076,valid,,Region I,Region I,Ilocos Norte,ILOCOS NORTE,SOLSONA,JUAN (POB.),1,1,0,active,Sectarian,Standalone School,False,True,True,"ABM,HUMSS,STEM",0100000000,Region I (Ilocos Region),0102800000,Ilocos Norte,0102822000,Solsona,0102822009,Juan ,0102822009,psgc_match,R,2nd
400024,Faith Bible Baptist Academy,18.10219,120.78097,valid,,Region I,Region I,Ilocos Norte,ILOCOS NORTE,SOLSONA,JUAN (POB.),0,0,0,active,Non-Sectarian,Standalone School,True,False,False,,0100000000,Region I (Ilocos Region),0102800000,Ilocos Norte,0102822000,Solsona,0102822009,Juan ,0102822022,psgc_mismatch,R,2nd
400025,"Saint Nicholas Academy of Vintar, Inc.",18.2295787,120.6500728,valid,,Region I,Region I,Ilocos Norte,ILOCOS NORTE,VINTAR,SAN NICOLAS (POB.),1,1,0,active,Sectarian,Standalone School,False,True,True,"HUMSS,STEM",0100000000,Region I (Ilocos Region),0102800000,Ilocos Norte,0102823000,Vintar,0102823050,San Nicolas ,0102823050,psgc_match,R,1st
400026,"Vintar Academy, Inc.",18.2284689,120.6487485,valid,,Region I,Region I,Ilocos Norte,ILOCOS NORTE,VINTAR,SAN NICOLAS (POB.),1,0,0,active,Non-Sectarian,Standalone School,False,True,False,,0100000000,Region I (Ilocos Region),0102800000,Ilocos Norte,0102823000,Vintar,0102823050,San Nicolas ,0102823050,psgc_match,R,1st
400027,"St. Paul College of Ilocos Sur, Inc.",,,no_coords,no_submission,Region I,Region I,Ilocos Sur,ILOCOS SUR,BANTAY,BARANGAY 4 (POB.),0,0,0,active,Sectarian,Standalone School,True,True,True,"ABM,GAS,HUMSS,STEM",0100000000,Region I (Ilocos Region),0102900000,Ilocos Sur,0102903000,Bantay,0102903033,Barangay 4 ,,psgc_no_validation,U,1st
400028,"Holy Name High School Burgos in Sur, Inc.",17.31766,120.5099,valid,,Region I,Region I,Ilocos Sur,ILOCOS SUR,BURGOS,LUNA,1,1,0,active,Sectarian,Standalone School,False,True,True,"GAS,TVL",0100000000,Region I (Ilocos Region),0102900000,Ilocos Sur,0102904000,Burgos,0102904013,Luna,0102904013,psgc_match,R,1st
400029,Cabugao Institute Inc.,17.7894,120.4586,valid,,Region I,Region I,Ilocos Sur,ILOCOS SUR,CABUGAO,BONIFACIO (POB.),1,1,0,active,Sectarian,Standalone School,False,True,True,"ABM,HUMSS,STEM,TVL",0100000000,Region I (Ilocos Region),0102900000,Ilocos Sur,0102905000,Cabugao,0102905006,Bonifacio ,0102905006,psgc_match,U,1st
400030,San Andres Adventist Elementary School,14.0,121.0,suspect,coordinate_cluster,Region I,Region I,Candon City,ILOCOS SUR,CITY OF CANDON,SAN ANDRES,0,0,0,active,Non-Sectarian,Standalone School,True,False,False,,0100000000,Region I (Ilocos Region),0102900000,Ilocos Sur,0102906000,City of Candon,0102906035,San Andres,0401025018,psgc_mismatch,R,1st
400031,"St. Joseph's Institute, Inc.",,,no_coords,invalid,Region I,Region I,Candon City,ILOCOS SUR,CITY OF CANDON,SAN JUAN (POB.),1,1,0,active,Sectarian,Standalone School,True,True,True,"ABM,GAS,HUMSS,STEM",0100000000,Region I (Ilocos Region),0102900000,Ilocos Sur,0102906000,City of Candon,0102906039,San Juan ,,psgc_no_validation,U,1st
400032,"St. Agnes School, Inc.",16.991801,120.737688,valid,,Region I,Region I,Ilocos Sur,ILOCOS SUR,CERVANTES,CONCEPCION (POB.),1,1,0,active,Sectarian,Standalone School,True,True,True,HUMSS,0100000000,Region I (Ilocos Region),0102900000,Ilocos Sur,0102908000,Cervantes,0102908004,Concepcion ,0102908004,psgc_match,R,1st
400033,"Adventist School Galimuyod Campus, Inc.",17.0,120.0,suspect,round_coordinates,Region I,Region I,Ilocos Sur,ILOCOS SUR,GALIMUYOD,BIDBIDAY,0,0,0,active,Sectarian,Standalone School,True,False,False,,0100000000,Region I (Ilocos Region),0102900000,Ilocos Sur,0102909000,Galimuyod,0102909003,Bidbiday,,psgc_no_validation,R,1st
400035,"Concepcion Adventist Academy of the Seventh-Day Adventist Church, Inc.",17.128077,120.606736,valid,,Region I,Region I,Ilocos Sur,ILOCOS SUR,GREGORIO DEL PILAR (CONCEPCION),CONCEPCION,1,1,0,active,Sectarian,Standalone School,False,True,True,"ABM,HUMSS,STEM",0100000000,Region I (Ilocos Region),0102900000,Ilocos Sur,0102910000,Gregorio del Pilar,0102910003,Concepcion,0102910003,psgc_match,R,1st
400036,The Magsingal Institute of Secondary Education Incorporated,17.6887906,120.42689,valid,,Region I,Region I,Ilocos Sur,ILOCOS SUR,MAGSINGAL,SAN LUCAS (POB.),1,0,0,active,Non-Sectarian,Standalone School,False,True,False,,0100000000,Region I (Ilocos Region),0102900000,Ilocos Sur,0102912000,Magsingal,0102912035,San Lucas ,0102912032,psgc_mismatch,R,1st
400037,"Saint  William's Institute, Inc.",17.68448,120.4251,valid,,Region I,Region I,Ilocos Sur,ILOCOS SUR,MAGSINGAL,SAN RAMON (POB.),1,1,0,active,Sectarian,Standalone School,True,True,True,"ABM,GAS,HUMSS,STEM,TVL",0100000000,Region I (Ilocos Region),0102900000,Ilocos Sur,0102912000,Magsingal,0102912036,San Ramon ,0102912036,psgc_match,R,1st
400039,"Narvacan Catholic School, Inc.",17.418093,120.476498,valid,,Region I,Region I,Ilocos Sur,ILOCOS SUR,NARVACAN,SANTA LUCIA (POB.),1,1,0,active,Sectarian,Standalone School,True,True,True,STEM,0100000000,Region I (Ilocos Region),0102900000,Ilocos Sur,0102914000,Narvacan,0102914030,Santa Lucia ,0102914027,psgc_mismatch,U,1st
400040,"Tirad View Academy of Seventh-Day Adventists, Inc.",17.13427,120.65553,valid,,Region I,Region I,Ilocos Sur,ILOCOS SUR,QUIRINO (ANGKAKI),CAYUS,1,1,0,active,Sectarian,Standalone School,True,True,True,"ABM,HUMSS,STEM",0100000000,Region I (Ilocos Region),0102900000,Ilocos Sur,0102915000,Quirino,0102915002,Cayus,0102915002,psgc_match,R,1st
400043,"San Juan Institute, Ilocos Sur, Inc.",17.742881,120.456421,valid,,Region I,Region I,Ilocos Sur,ILOCOS SUR,SAN JUAN (LAPOG),LIRA (POB.),1,0,0,active,Non-Sectarian,Standalone School,False,True,False,,0100000000,Region I (Ilocos Region),0102900000,Ilocos Sur,0102920000,San Juan,0102920019,Lira ,0102920019,psgc_match,R,1st
400044,"Santa High School,Inc.",17.4868631,120.4328514,valid,,Region I,Region I,Ilocos Sur,ILOCOS SUR,SANTA,QUIRINO (POB.),1,1,0,active,Non-Sectarian,Standalone School,False,True,True,"GAS,HUMSS,STEM,TVL",0100000000,Region I (Ilocos Region),0102900000,Ilocos Sur,0102922000,Santa,0102922023,Quirino ,0102922023,psgc_match,R,2nd
400045,"Sta. Catalina High School, Inc.",17.5910555,120.3642402,valid,,Region I,Region I,Ilocos Sur,ILOCOS SUR,SANTA CATALINA,POBLACION,1,1,0,active,Sectarian,Standalone School,False,True,True,HUMSS,0100000000,Region I (Ilocos Region),0102900000,Ilocos Sur,0102923000,Santa Catalina,0102923006,Poblacion,0102923006,psgc_match,R,2nd
400046,Our Lady of Guadalupe Academy (Sevilla),14.57929,121.06494,suspect,placeholder_default,Region I,Region I,Ilocos Sur,ILOCOS SUR,SANTA CRUZ,SEVILLA,1,1,0,active,Sectarian,Standalone School,False,True,True,GAS,0100000000,Region I (Ilocos Region),0102900000,Ilocos Sur,0102924000,Santa Cruz,0102924042,Sevilla,1381200013,psgc_mismatch,R,1st
400047,Pascual Rivera Pimentel Memorial Academy,17.08352,120.4523,valid,,Region I,Region I,Ilocos Sur,ILOCOS SUR,SANTA CRUZ,POBLACION SUR,1,1,0,active,Sectarian,Standalone School,False,True,True,"ABM,HUMSS,STEM",0100000000,Region I (Ilocos Region),0102900000,Ilocos Sur,0102924000,Santa Cruz,0102924034,Poblacion Sur,0102924034,psgc_match,R,1st
400048,"San Jose High School, Inc.",17.096812,120.495491,valid,,Region I,Region I,Ilocos Sur,ILOCOS SUR,SANTA CRUZ,SAN JOSE,1,1,0,active,Sectarian,Standalone School,False,True,True,"ABM,GAS,HUMSS",0100000000,Region I (Ilocos Region),0102900000,Ilocos Sur,0102924000,Santa Cruz,0102924039,San Jose,0102924039,psgc_match,R,1st
400049,"Sta. Cruz Institute, Inc.",,,no_coords,invalid,Region I,Region I,Ilocos Sur,ILOCOS SUR,SANTA CRUZ,POBLACION SUR,1,1,0,active,Sectarian,Standalone School,True,True,True,"ABM,HUMSS,STEM",0100000000,Region I (Ilocos Region),0102900000,Ilocos Sur,0102924000,Santa Cruz,0102924034,Poblacion Sur,,psgc_no_validation,R,1st
400050,"Sta. Lucia Academy, Inc.",17.12144,120.449811,valid,,Region I,Region I,Ilocos Sur,ILOCOS SUR,SANTA LUCIA,BARANGOBONG (POB.),1,1,0,active,Sectarian,Standalone School,False,True,True,"ABM,GAS,HUMSS,STEM",0100000000,Region I (Ilocos Region),0102900000,Ilocos Sur,0102925000,Santa Lucia,0102925007,Barangobong ,0102925007,psgc_match,R,1st
400051,"Santa Lucia Catholic School, Inc.",17.115783,120.4469612,valid,,Region I,Region I,Ilocos Sur,ILOCOS SUR,SANTA LUCIA,BURGOS (POB.),1,1,0,active,Sectarian,Standalone School,True,True,True,STEM,0100000000,Region I (Ilocos Region),0102900000,Ilocos Sur,0102925000,Santa Lucia,0102925009,Burgos ,0102925004,psgc_mismatch,R,1st
400052,"St. Mary's College Sta. Maria, Ilocos Sur, Inc.",17.3666697,120.4822285,valid,,Region I,Region I,Ilocos Sur,ILOCOS SUR,SANTA MARIA,POBLACION SUR,1,1,0,active,Sectarian,Standalone School,True,True,True,"ABM,GAS,HUMSS,STEM",0100000000,Region I (Ilocos Region),0102900000,Ilocos Sur,0102926000,Santa Maria,0102926030,Poblacion Sur,0102926030,psgc_match,U,1st
400053,"Santiago Catholic School (SCS), Inc.",17.2938,120.4464,valid,,Region I,Region I,Ilocos Sur,ILOCOS SUR,SANTIAGO,POBLACION NORTE,1,1,0,active,Sectarian,Standalone School,False,True,True,"ABM,HUMSS,STEM",0100000000,Region I (Ilocos Region),0102900000,Ilocos Sur,0102927000,Santiago,0102927019,Poblacion Norte,0102927019,psgc_match,R,1st
400054,Santiago Institute,17.294779,120.445586,valid,,Region I,Region I,Ilocos Sur,ILOCOS SUR,SANTIAGO,POBLACION NORTE,1,1,0,active,Sectarian,Standalone School,False,True,True,"GAS,TVL",0100000000,Region I (Ilocos Region),0102900000,Ilocos Sur,0102927000,Santiago,0102927019,Poblacion Norte,0102927019,psgc_match,R,1st
400055,"Benito Soliven Academy, Inc.",17.637238,120.410069,valid,,Region I,Region I,Ilocos Sur,ILOCOS SUR,SANTO DOMINGO,NALASIN,1,1,0,active,Sectarian,Standalone School,False,True,True,"HUMSS,STEM",0100000000,Region I (Ilocos Region),0102900000,Ilocos Sur,0102928000,Santo Domingo,0102928014,Nalasin,0102928014,psgc_match,R,1st
400056,St.  Augustine's School Inc.,16.93353,120.44419,valid,,Region I,Region I,Ilocos Sur,ILOCOS SUR,TAGUDIN,RIZAL (POB.),1,1,0,active,Sectarian,Standalone School,True,True,True,"ABM,HUMSS,STEM",0100000000,Region I (Ilocos Region),0102900000,Ilocos Sur,0102933000,Tagudin,0102933038,Rizal ,0102933038,psgc_match,R,1st
400057,"Adventist School Tagudin Campus, Inc.",16.931714,120.447888,valid,,Region I,Region I,Ilocos Sur,ILOCOS SUR,TAGUDIN,DEL PILAR (POB.),0,0,0,active,Sectarian,Standalone School,True,False,False,,0100000000,Region I (Ilocos Region),0102900000,Ilocos Sur,0102933000,Tagudin,0102933018,Del Pilar ,0102933018,psgc_match,U,1st
400059,"Calvary Baptist Academy, Inc.",17.57442,120.37304,valid,,Region I,Region I,Vigan City,ILOCOS SUR,CITY OF VIGAN (Capital),AYUSAN NORTE,0,0,0,active,Sectarian,Standalone School,True,True,False,,0100000000,Region I (Ilocos Region),0102900000,Ilocos Sur,0102934000,City of Vigan ,0102934001,Ayusan Norte,0102934001,psgc_match,R,4th
400061,Divine Word College of Vigan,17.57479,120.38968,valid,,Region I,Region I,Vigan City,ILOCOS SUR,CITY OF VIGAN (Capital),BARANGAY II (POB.),1,1,0,active,Non-Sectarian,Standalone School,True,True,True,"ABM,GAS,HUMSS,STEM",0100000000,Region I (Ilocos Region),0102900000,Ilocos Sur,0102934000,City of Vigan ,0102934004,Barangay II ,0102934004,psgc_match,U,4th
400062,"Immaculate Conception Minor Seminary, Inc.",17.5621555,120.3706272,valid,,Region I,Region I,Vigan City,ILOCOS SUR,CITY OF VIGAN (Capital),AYUSAN SUR,1,1,0,active,Non-Sectarian,Standalone School,False,True,True,GAS,0100000000,Region I (Ilocos Region),0102900000,Ilocos Sur,0102934000,City of Vigan ,0102934002,Ayusan Sur,0102934002,psgc_match,R,4th
400063,Vigan City Nan Chong School Incorporated,17.575,120.88,valid,,Region I,Region I,Vigan City,ILOCOS SUR,CITY OF VIGAN (Capital),BARANGAY III (POB.),0,0,0,active,Non-Sectarian,Standalone School,True,False,False,,0100000000,Region I (Ilocos Region),0102900000,Ilocos Sur,0102934000,City of Vigan ,0102934005,Barangay III ,1400113003,psgc_mismatch,U,4th
400064,Adventist School La Ciudad Fernandina Inc.,17.573557,120.39255,valid,,Region I,Region I,Vigan City,ILOCOS SUR,CITY OF VIGAN (Capital),CAPANGPANGAN,0,0,0,active,Non-Sectarian,Standalone School,True,False,False,,0100000000,Region I (Ilocos Region),0102900000,Ilocos Sur,0102934000,City of Vigan ,0102934018,Capangpangan,0102934018,psgc_match,R,4th
400067,Agoo Kiddie Special School,16.3323,120.3775,valid,,Region I,Region I,La Union,LA UNION,AGOO,CONSOLACION (POB.),1,1,0,active,Non-Sectarian,Standalone School,True,True,True,"ABM,STEM",0100000000,Region I (Ilocos Region),0103300000,La Union,0103301000,Agoo,0103301004,Consolacion ,0103301010,psgc_mismatch,U,1st
400068,"Agoo Montessori Learning Center & High School, Inc.",14.57929,121.06494,suspect,placeholder_default,Region I,Region I,La Union,LA UNION,AGOO,SAN ANTONIO,1,1,0,active,Non-Sectarian,Standalone School,True,True,True,"ABM,HUMSS,STEM",0100000000,Region I (Ilocos Region),0103300000,La Union,0103301000,Agoo,0103301014,San Antonio,1381200013,psgc_mismatch,U,1st
400069,Southville Academy of Malolos,14.846381,120.808296,valid,,Region III,Region III,Malolos City,BULACAN,CITY OF MALOLOS  (Capital),CAINGIN,0,0,0,active,Non-Sectarian,Standalone School,True,False,False,,0300000000,Region III (Central Luzon),0301400000,Bulacan,0301410000,City of Malolos ,0301410016,Caingin,0301410016,psgc_match,U,1st
400070,"St. Mary's Academy - Agoo, La union, Inc.",16.3233662188914,120.367633396319,valid,,Region I,Region I,La Union,LA UNION,AGOO,CONSOLACION (POB.),1,1,0,active,Sectarian,Standalone School,False,True,True,"ABM,HUMSS,STEM",0100000000,Region I (Ilocos Region),0103300000,La Union,0103301000,Agoo,0103301004,Consolacion ,0103301004,psgc_match,U,1st
400071,"Agoo UCCP-Nursery-Kindergarten School, Inc.",16.32176,120.35414,valid,,Region I,Region I,La Union,LA UNION,AGOO,SANTA BARBARA (POB.),1,0,0,active,Non-Sectarian,Standalone School,True,False,False,,0100000000,Region I (Ilocos Region),0103300000,La Union,0103301000,Agoo,0103301041,Santa Barbara ,0103301023,psgc_mismatch,U,1st
400072,"ASSATT CHRISTIAN SCHOOL, INC.",16.36431,120.35808,valid,,Region I,Region I,La Union,LA UNION,ARINGAY,SAN EUGENIO,1,1,0,active,Non-Sectarian,Standalone School,True,True,True,"GAS,HUMSS",0100000000,Region I (Ilocos Region),0103300000,La Union,0103302000,Aringay,0103302016,San Eugenio,0103302016,psgc_match,U,1st
400073,Notre Dame Institute,16.39491,120.35504,valid,,Region I,Region I,La Union,LA UNION,ARINGAY,POBLACION,1,1,0,active,Sectarian,Standalone School,False,True,True,"ABM,HUMSS,STEM",0100000000,Region I (Ilocos Region),0103300000,La Union,0103302000,Aringay,0103302010,Poblacion,0103302010,psgc_match,R,1st
400074,"St. Barachiel Special Science School, Inc.",16.39716,120.35576,valid,,Region I,Region I,La Union,LA UNION,ARINGAY,SAN BENITO SUR,0,0,0,active,Non-Sectarian,Standalone School,True,False,False,,0100000000,Region I (Ilocos Region),0103300000,La Union,0103302000,Aringay,0103302015,San Benito Sur,0103302015,psgc_match,U,1st
400075,"Lord of Zion Divine School, Inc.",16.43166598,120.20377747,valid,,Region I,Region I,La Union,LA UNION,BACNOTAN,POBLACION,1,1,0,active,Non-Sectarian,Standalone School,True,True,True,"ABM,GAS,HUMSS,STEM",0100000000,Region I (Ilocos Region),0103300000,La Union,0103303000,Bacnotan,0103303034,Poblacion,,psgc_no_validation,U,1st
400076,"St. Anthony Montessori Educational Network, Inc.",,,no_coords,invalid,Region I,Region I,La Union,LA UNION,BACNOTAN,POBLACION,1,1,0,active,Non-Sectarian,Standalone School,True,True,True,"ABM,GAS,HUMSS",0100000000,Region I (Ilocos Region),0103300000,La Union,0103303000,Bacnotan,0103303034,Poblacion,,psgc_no_validation,U,1st
400077,ABE International Business College - La Union Inc.,,,no_coords,no_submission,Region I,Region I,La Union,LA UNION,BACNOTAN,BARORO,0,0,0,active,Non-Sectarian,Standalone School,False,True,True,"ABM,GAS,HUMSS,TVL",0100000000,Region I (Ilocos Region),0103300000,La Union,0103303000,Bacnotan,0103303007,Baroro,,psgc_no_validation,U,1st
400078,Stella Maris Academy,16.763399,120.33787,valid,,Region I,Region I,La Union,LA UNION,BACNOTAN,QUIRINO,1,1,0,active,Sectarian,Standalone School,False,True,True,GAS,0100000000,Region I (Ilocos Region),0103300000,La Union,0103303000,Bacnotan,0103303035,Quirino,0103303035,psgc_match,U,1st
400080,Osias Educational Foundation,16.819689571,120.409516662694,valid,,Region I,Region I,La Union,LA UNION,BALAOAN,DR. CAMILO OSIAS POB. (CABUAAN ESTE),1,1,1,active,Non-Sectarian,Standalone School,True,True,True,"GAS,HUMSS,STEM",0100000000,Region I (Ilocos Region),0103300000,La Union,0103305000,Balaoan,0103305031,Dr. Camilo Osias Pob.,0103305031,psgc_match,U,1st
400081,San Nicolas Academy,16.82152,120.40388,valid,,Region I,Region I,La Union,LA UNION,BALAOAN,DR. CAMILO OSIAS POB. (CABUAAN ESTE),1,1,0,active,Sectarian,Standalone School,True,True,True,,0100000000,Region I (Ilocos Region),0103300000,La Union,0103305000,Balaoan,0103305031,Dr. Camilo Osias Pob.,0103305031,psgc_match,U,1st
400082,"Saint Christopher Academy of Bangar, La Union, Inc.",16.89302,120.42367,valid,,Region I,Region I,La Union,LA UNION,BANGAR,CENTRAL EAST NO. 1 (POB.),1,1,0,active,Sectarian,Standalone School,True,True,True,"GAS,HUMSS,STEM",0100000000,Region I (Ilocos Region),0103300000,La Union,0103306000,Bangar,0103306025,Central East No. 1 ,0103306025,psgc_match,R,1st
400084,"La Union Colleges of Science and Technology, Inc.",16.5256409278082,120.327306291132,valid,,Region I,Region I,La Union,LA UNION,BAUANG,CENTRAL WEST (POB.),1,1,1,active,Non-Sectarian,Standalone School,True,True,True,"ABM,HUMSS,STEM,TVL",0100000000,Region I (Ilocos Region),0103300000,La Union,0103307000,Bauang,0103307015,Central West ,0103307015,psgc_match,U,1st
400085,Sacred Heart School,16.52567,120.33074,valid,,Region I,Region I,La Union,LA UNION,BAUANG,CENTRAL EAST (POB.),1,1,0,active,Sectarian,Standalone School,False,True,True,"ABM,HUMSS,STEM",0100000000,Region I (Ilocos Region),0103300000,La Union,0103307000,Bauang,0103307014,Central East ,0103307014,psgc_match,U,1st
400086,"St. Anthony Montessori Educational Network, Inc. (Bauang)",,,no_coords,invalid,Region I,Region I,La Union,LA UNION,BAUANG,CENTRAL EAST (POB.),1,1,0,active,Non-Sectarian,Standalone School,True,True,True,"GAS,HUMSS",0100000000,Region I (Ilocos Region),0103300000,La Union,0103307000,Bauang,0103307014,Central East ,,psgc_no_validation,U,1st
400087,Sts. Peter and Paul Learning Center,16.5258036255585,120.330719108098,valid,,Region I,Region I,La Union,LA UNION,BAUANG,CENTRAL EAST (POB.),0,0,0,active,Sectarian,Standalone School,True,False,False,,0100000000,Region I (Ilocos Region),0103300000,La Union,0103307000,Bauang,0103307014,Central East ,0103307014,psgc_match,U,1st
400088,UCCP Nursery Kindergarten School (Bauang),14.0,121.0,suspect,coordinate_cluster,Region I,Region I,La Union,LA UNION,BAUANG,CENTRAL EAST (POB.),0,0,0,active,Sectarian,Standalone School,True,False,False,,0100000000,Region I (Ilocos Region),0103300000,La Union,0103307000,Bauang,0103307014,Central East ,0401025018,psgc_mismatch,U,1st
400089,"Jesus Cares Christian Academy of Caba, La Union, Inc.",16.43606,120.34389,valid,,Region I,Region I,La Union,LA UNION,CABA,POBLACION NORTE,0,0,0,active,Non-Sectarian,Standalone School,True,False,False,,0100000000,Region I (Ilocos Region),0103300000,La Union,0103309000,Caba,0103309006,Poblacion Norte,0103309006,psgc_match,R,1st
400090,"La Union Standard Academy, Inc.",16.42332,120.34946,valid,,Region I,Region I,La Union,LA UNION,CABA,GANA,1,1,0,active,Non-Sectarian,Standalone School,False,True,True,GAS,0100000000,Region I (Ilocos Region),0103300000,La Union,0103309000,Caba,0103309002,Gana,0103309002,psgc_match,R,1st
400091,St. John the Baptist Learning Center,16.4360472,120.3430987,valid,,Region I,Region I,La Union,LA UNION,CABA,POBLACION SUR,1,0,0,active,Sectarian,Standalone School,True,True,True,,0100000000,Region I (Ilocos Region),0103300000,La Union,0103309000,Caba,0103309007,Poblacion Sur,0103309006,psgc_mismatch,R,1st
400092,Santa Catalina Academy,16.85587,120.37874,valid,,Region I,Region I,La Union,LA UNION,LUNA,VICTORIA (POB.),1,1,0,active,Sectarian,Standalone School,False,True,True,STEM,0100000000,Region I (Ilocos Region),0103300000,La Union,0103310000,Luna,0103310040,Victoria ,0103310040,psgc_match,R,2nd
400094,"Naguilian Learning Center, Inc",16.530722,120.397647,valid,,Region I,Region I,La Union,LA UNION,NAGUILIAN,IMELDA,0,0,0,active,Sectarian,Standalone School,True,False,False,,0100000000,Region I (Ilocos Region),0103300000,La Union,0103311000,Naguilian,0103311022,Imelda,0103311022,psgc_match,U,1st
400095,"St. Augustine School of Naguilian, Inc.",16.53074,120.39276,valid,,Region I,Region I,La Union,LA UNION,NAGUILIAN,NATIVIDAD (POB.),0,0,0,active,Sectarian,Standalone School,True,False,False,,0100000000,Region I (Ilocos Region),0103300000,La Union,0103311000,Naguilian,0103311029,Natividad ,0103311029,psgc_match,U,1st
400097,Pugo Catholic School,16.3212,120.4656,valid,,Region I,Region I,La Union,LA UNION,PUGO,TAVORA EAST,1,1,0,active,Non-Sectarian,Standalone School,True,True,True,"HUMSS,STEM",0100000000,Region I (Ilocos Region),0103300000,La Union,0103312000,Pugo,0103312013,Tavora East,0103312015,psgc_mismatch,R,3rd
400098,"Saint Mary's Academy of Rosario, Inc.",16.230239,120.488541,valid,,Region I,Region I,La Union,LA UNION,ROSARIO,POBLACION EAST,1,1,0,active,Sectarian,Standalone School,False,True,True,HUMSS,0100000000,Region I (Ilocos Region),0103300000,La Union,0103313000,Rosario,0103313022,Poblacion East,0103313022,psgc_match,U,1st
400100,Immaculate Conception School of Malolos - Stella Maris,14.7604841,120.813247,valid,,Region III,Region III,Malolos City,BULACAN,CITY OF MALOLOS  (Capital),PAMARAWAN,0,0,0,active,Sectarian,Standalone School,True,False,False,,0300000000,Region III (Central Luzon),0301400000,Bulacan,0301410000,City of Malolos ,0301410037,Pamarawan,0301410037,psgc_match,R,1st
400101,"BHC Educational Institution, Inc.",16.590079,120.320419,valid,,Region I,Region I,San Fernando City,LA UNION,CITY OF SAN FERNANDO (Capital),SEVILLA,1,1,0,active,Non-Sectarian,Standalone School,True,True,True,"ABM,HUMSS,STEM",0100000000,Region I (Ilocos Region),0103300000,La Union,0103314000,City of San Fernando ,0103314057,Sevilla,0103314057,psgc_match,U,2nd
400102,Capitol Church Nursery Kindergarten School,16.614574,120.317108,valid,,Region I,Region I,San Fernando City,LA UNION,CITY OF SAN FERNANDO (Capital),BARANGAY II (POB.),0,0,0,active,Sectarian,Standalone School,True,False,False,,0100000000,Region I (Ilocos Region),0103300000,La Union,0103314000,City of San Fernando ,0103314007,Barangay II ,0103314007,psgc_match,U,2nd
400103,"Christ the King College - San Fernando City, La Union Inc.",16.60963,120.3173,valid,,Region I,Region I,San Fernando City,LA UNION,CITY OF SAN FERNANDO (Capital),BARANGAY II (POB.),1,1,0,active,Sectarian,Standalone School,True,True,True,"ABM,HUMSS,STEM",0100000000,Region I (Ilocos Region),0103300000,La Union,0103314000,City of San Fernando ,0103314007,Barangay II ,0103314057,psgc_mismatch,U,2nd
400104,CICOSAT Colleges Inc.,16.74647,120.3111,valid,,Region I,Region I,San Fernando City,LA UNION,CITY OF SAN FERNANDO (Capital),LINGSAT,1,1,0,active,Non-Sectarian,Standalone School,True,True,True,"HUMSS,STEM,TVL",0100000000,Region I (Ilocos Region),0103300000,La Union,0103314000,City of San Fernando ,0103314030,Lingsat,,psgc_no_validation,U,2nd
400105,Diocesan Seminary of the Heart of Jesus,16.586403,120.307711,valid,,Region I,Region I,San Fernando City,LA UNION,CITY OF SAN FERNANDO (Capital),SAN VICENTE,1,1,0,active,Sectarian,Standalone School,False,True,True,GAS,0100000000,Region I (Ilocos Region),0103300000,La Union,0103314000,City of San Fernando ,0103314053,San Vicente,0103314053,psgc_match,R,2nd
400106,"Felkris Academy, Inc.",16.645772,120.310664,valid,,Region I,Region I,San Fernando City,LA UNION,CITY OF SAN FERNANDO (Capital),LINGSAT,1,1,0,active,Non-Sectarian,Standalone School,True,True,True,"ABM,HUMSS,STEM",0100000000,Region I (Ilocos Region),0103300000,La Union,0103314000,City of San Fernando ,0103314030,Lingsat,0103314030,psgc_match,U,2nd
400107,"Gifted Learning Centre, Inc.",16.61445,120.3143,valid,,Region I,Region I,San Fernando City,LA UNION,CITY OF SAN FERNANDO (Capital),CATBANGEN,1,1,0,active,Non-Sectarian,Standalone School,True,True,True,"ABM,GAS,HUMSS",0100000000,Region I (Ilocos Region),0103300000,La Union,0103314000,City of San Fernando ,0103314022,Catbangen,0103314022,psgc_match,U,2nd
400108,"Adventist School City of San Fernando La Union, Inc.",,,no_coords,out_of_bounds,Region I,Region I,San Fernando City,LA UNION,CITY OF SAN FERNANDO (Capital),TANQUI,0,0,0,active,Non-Sectarian,Standalone School,True,False,False,,0100000000,Region I (Ilocos Region),0103300000,La Union,0103314000,City of San Fernando ,0103314059,Tanqui,,psgc_no_validation,U,2nd
400109,La Union Bible Baptist Academy,16.6194,120.3286,valid,,Region I,Region I,San Fernando City,LA UNION,CITY OF SAN FERNANDO (Capital),CABAROAN (NEGRO),0,0,0,active,Sectarian,Standalone School,True,True,False,,0100000000,Region I (Ilocos Region),0103300000,La Union,0103314000,City of San Fernando ,0103314015,Cabaroan,0103314015,psgc_match,R,2nd
400110,La Union Cultural Institute,14.57929,121.06494,suspect,placeholder_default,Region I,Region I,San Fernando City,LA UNION,CITY OF SAN FERNANDO (Capital),BARANGAY I (POB.),1,1,0,active,Non-Sectarian,Standalone School,True,True,True,"ABM,STEM",0100000000,Region I (Ilocos Region),0103300000,La Union,0103314000,City of San Fernando ,0103314006,Barangay I ,1381200013,psgc_mismatch,U,2nd
400112,Lorma Grade School/Lorma Colleges Special Science HS,16.66179,120.32779,valid,,Region I,Region I,La Union,LA UNION,SAN JUAN,URBIZTONDO,1,1,1,active,Non-Sectarian,Standalone School,True,True,True,"ABM,HUMSS,STEM,TVL",0100000000,Region I (Ilocos Region),0103300000,La Union,0103316000,San Juan,0103316042,Urbiztondo,0103316042,psgc_match,U,1st
400113,San Pablo Educational Center,14.84262,120.8451,valid,,Region III,Region III,Malolos City,BULACAN,CITY OF MALOLOS  (Capital),SAN PABLO,0,0,0,active,Non-Sectarian,Standalone School,True,False,False,,0300000000,Region III (Central Luzon),0301400000,Bulacan,0301410000,City of Malolos ,0301410044,San Pablo,0301410044,psgc_match,U,1st
400115,Saint Louis College Elementary / High School,16.636845,120.312723,valid,,Region I,Region I,San Fernando City,LA UNION,CITY OF SAN FERNANDO (Capital),CARLATAN,1,1,0,active,Sectarian,Standalone School,True,True,True,"ABM,HUMSS,STEM,TVL",0100000000,Region I (Ilocos Region),0103300000,La Union,0103314000,City of San Fernando ,0103314021,Carlatan,0103314030,psgc_mismatch,U,2nd
400117,St. Jude Montessori Educational Center of La Union,14.57929,121.06494,suspect,placeholder_default,Region I,Region I,San Fernando City,LA UNION,CITY OF SAN FERNANDO (Capital),CATBANGEN,0,0,0,active,Sectarian,Standalone School,True,True,False,,0100000000,Region I (Ilocos Region),0103300000,La Union,0103314000,City of San Fernando ,0103314022,Catbangen,1381200013,psgc_mismatch,U,2nd
400118,St. William Parish Nursery Kindergarten School,16.61563,120.31751,valid,,Region I,Region I,San Fernando City,LA UNION,CITY OF SAN FERNANDO (Capital),BARANGAY II (POB.),0,0,0,active,Sectarian,Standalone School,True,False,False,,0100000000,Region I (Ilocos Region),0103300000,La Union,0103314000,City of San Fernando ,0103314007,Barangay II ,0103314007,psgc_match,U,2nd
400119,Union Christian College,12.879721,121.774017,valid,,Region I,Region I,San Fernando City,LA UNION,CITY OF SAN FERNANDO (Capital),BARANGAY II (POB.),1,1,0,active,Non-Sectarian,Standalone School,True,True,True,"ABM,GAS,HUMSS,STEM",0100000000,Region I (Ilocos Region),0103300000,La Union,0103314000,City of San Fernando ,0103314007,Barangay II ,,psgc_no_validation,U,2nd
400120,Vineyard Christian Academy,16.624236,120.316161,valid,,Region I,Region I,San Fernando City,LA UNION,CITY OF SAN FERNANDO (Capital),PAGDARAOAN,1,0,0,active,Sectarian,Standalone School,True,True,False,,0100000000,Region I (Ilocos Region),0103300000,La Union,0103314000,City of San Fernando ,0103314041,Pagdaraoan,0103314041,psgc_match,U,2nd
400121,St. Gabriel The Archangel High School Inc.,16.67321,120.39982,valid,,Region I,Region I,La Union,LA UNION,SAN GABRIEL,POBLACION,1,0,0,active,Non-Sectarian,Standalone School,False,True,False,,0100000000,Region I (Ilocos Region),0103300000,La Union,0103315000,San Gabriel,0103315019,Poblacion,0103315019,psgc_match,R,3rd
400122,Holy Angels Montessori and Learning Center,14.57929,121.06494,suspect,placeholder_default,Region I,Region I,La Union,LA UNION,SAN JUAN,ILI NORTE (POB.),0,0,0,active,Non-Sectarian,Standalone School,True,False,False,,0100000000,Region I (Ilocos Region),0103300000,La Union,0103316000,San Juan,0103316020,Ili Norte ,1381200013,psgc_mismatch,U,1st
400123,Sacred Heart Learning Center,16.2537,120.4,valid,,Region I,Region I,La Union,LA UNION,SANTO TOMAS,NAMONITAN,0,0,0,active,Non-Sectarian,Standalone School,True,False,False,,0100000000,Region I (Ilocos Region),0103300000,La Union,0103317000,Santo Tomas,0103317016,Namonitan,0103317016,psgc_match,R,1st
400124,St. Mary of the Sea Academy,16.2809,120.3804,valid,,Region I,Region I,La Union,LA UNION,SANTO TOMAS,POBLACION,1,1,0,active,Non-Sectarian,Standalone School,False,True,True,HUMSS,0100000000,Region I (Ilocos Region),0103300000,La Union,0103317000,Santo Tomas,0103317019,Poblacion,0103317019,psgc_match,R,1st
400125,San Alberto Magno Academy,16.3492117093836,120.412425111687,valid,,Region I,Region I,La Union,LA UNION,TUBAO,POBLACION,1,1,0,active,Sectarian,Standalone School,False,True,True,"HUMSS,STEM",0100000000,Region I (Ilocos Region),0103300000,La Union,0103320000,Tubao,0103320017,Poblacion,0103320017,psgc_match,U,2nd
400126,St. Isidore School of Tubao,,,no_coords,no_submission,Region I,Region I,La Union,LA UNION,TUBAO,POBLACION,0,0,0,active,Sectarian,Standalone School,True,False,False,,0100000000,Region I (Ilocos Region),0103300000,La Union,0103320000,Tubao,0103320017,Poblacion,,psgc_no_validation,U,2nd
400127,Jesus Christian Ministry School Inc.,14.867781,120.823192,valid,,Region III,Region III,Malolos City,BULACAN,CITY OF MALOLOS  (Capital),MOJON,0,0,0,active,Non-Sectarian,Standalone School,True,False,False,,0300000000,Region III (Central Luzon),0301400000,Bulacan,0301410000,City of Malolos ,0301410034,Mojon,0301410034,psgc_match,U,1st
400128,Aguilar Catholic School Inc.,15.889349,120.239262,valid,,Region I,Region I,"Pangasinan I, Lingayen",PANGASINAN,AGUILAR,POBLACION,1,1,0,active,Sectarian,Standalone School,True,True,True,"ABM,HUMSS,STEM",0100000000,Region I (Ilocos Region),0105500000,Pangasinan,0105502000,Aguilar,0105502011,Poblacion,0105502011,psgc_match,U,1st
400129,"Zaratan Educational Institute, Inc.",15.8890372,120.2384199,valid,,Region I,Region I,"Pangasinan I, Lingayen",PANGASINAN,AGUILAR,POGOMBOA,1,1,0,active,Non-Sectarian,Standalone School,False,True,True,"HUMSS,STEM",0100000000,Region I (Ilocos Region),0105500000,Pangasinan,0105502000,Aguilar,0105502012,Pogomboa,0105502011,psgc_mismatch,R,1st
400130,Adventist School of Western Pangasinan Inc.,16.16182,119.98217,valid,,Region I,Region I,Alaminos City,PANGASINAN,CITY OF ALAMINOS,POBLACION,0,0,0,active,Sectarian,Standalone School,True,False,False,,0100000000,Region I (Ilocos Region),0105500000,Pangasinan,0105503000,City of Alaminos,0105503021,Poblacion,0105503021,psgc_match,U,3rd
400134,"Esperanza De Leon Ramos (ELR) School, Inc.",16.1534453,119.98213,valid,,Region I,Region I,Alaminos City,PANGASINAN,CITY OF ALAMINOS,PALAMIS,0,0,0,active,Non-Sectarian,Standalone School,True,False,False,,0100000000,Region I (Ilocos Region),0105500000,Pangasinan,0105503000,City of Alaminos,0105503019,Palamis,0105503019,psgc_match,U,3rd
400135,Shekinah Grace School,,,no_coords,invalid,Region I,Region I,Alaminos City,PANGASINAN,CITY OF ALAMINOS,PALAMIS,0,0,0,active,Non-Sectarian,Standalone School,True,False,False,,0100000000,Region I (Ilocos Region),0105500000,Pangasinan,0105503000,City of Alaminos,0105503019,Palamis,,psgc_no_validation,U,3rd
400136,"Colegio San Jose de Alaminos, Inc.",16.156022,119.978546,valid,,Region I,Region I,Alaminos City,PANGASINAN,CITY OF ALAMINOS,POBLACION,1,1,0,active,Sectarian,Standalone School,True,True,True,"GAS,HUMSS,STEM",0100000000,Region I (Ilocos Region),0105500000,Pangasinan,0105503000,City of Alaminos,0105503021,Poblacion,0105503021,psgc_match,U,3rd
400138,The Great Plebeian College,16.1588086410124,119.980122006462,valid,,Region I,Region I,Alaminos City,PANGASINAN,CITY OF ALAMINOS,POBLACION,1,1,0,active,Non-Sectarian,Standalone School,True,True,True,"ABM,HUMSS,STEM,TVL",0100000000,Region I (Ilocos Region),0105500000,Pangasinan,0105503000,City of Alaminos,0105503021,Poblacion,0105503021,psgc_match,U,3rd
400139,"Asbury College, Inc.",16.28806,119.95401,valid,,Region I,Region I,"Pangasinan I, Lingayen",PANGASINAN,ANDA,POBLACION,1,1,0,active,Non-Sectarian,Standalone School,True,True,True,"GAS,HUMSS",0100000000,Region I (Ilocos Region),0105500000,Pangasinan,0105505000,Anda,0105505014,Poblacion,0105505014,psgc_match,U,2nd
400140,St. Nicholas Catholic School of Anda,16.29016,119.94847,valid,,Region I,Region I,"Pangasinan I, Lingayen",PANGASINAN,ANDA,POBLACION,1,1,0,active,Sectarian,Standalone School,True,True,True,"ABM,HUMSS,STEM,TVL",0100000000,Region I (Ilocos Region),0105500000,Pangasinan,0105505000,Anda,0105505014,Poblacion,0105505014,psgc_match,U,2nd
400142,Mary Help of Christians Catholic School,15.84905,120.39786,valid,,Region I,Region I,"Pangasinan I, Lingayen",PANGASINAN,BASISTA,NAVATAT,1,1,0,active,Sectarian,Standalone School,True,True,True,"ABM,HUMSS,STEM,TVL",0100000000,Region I (Ilocos Region),0105500000,Pangasinan,0105509000,Basista,0105509008,Navatat,0105509008,psgc_match,R,3rd
400144,"Mother Goose Special School System, Inc.",15.81426,120.45367,valid,,Region I,Region I,"Pangasinan I, Lingayen",PANGASINAN,BAYAMBANG,POBLACION SUR,0,0,0,active,Non-Sectarian,Standalone School,True,False,False,,0100000000,Region I (Ilocos Region),0105500000,Pangasinan,0105511000,Bayambang,0105511053,Poblacion Sur,0105511078,psgc_mismatch,U,1st
400145,"ST. VINCENT'S CATHOLIC SCHOOL OF BAYAMBANG, INC.",,,no_coords,invalid,Region I,Region I,"Pangasinan I, Lingayen",PANGASINAN,BAYAMBANG,POBLACION SUR,1,1,0,active,Non-Sectarian,Standalone School,True,True,True,"ABM,HUMSS,STEM",0100000000,Region I (Ilocos Region),0105500000,Pangasinan,0105511000,Bayambang,0105511053,Poblacion Sur,,psgc_no_validation,U,1st
400146,"Binmaley Catholic School, Inc.",16.03131,120.26841,valid,,Region I,Region I,"Pangasinan I, Lingayen",PANGASINAN,BINMALEY,POBLACION,1,1,0,active,Sectarian,Standalone School,True,True,True,"ABM,HUMSS,STEM,TVL",0100000000,Region I (Ilocos Region),0105500000,Pangasinan,0105513000,Binmaley,0105513026,Poblacion,0105513031,psgc_mismatch,U,1st
400148,"Food for Hungry Minds School, Inc.",14.84013,120.84905,valid,,Region III,Region III,Malolos City,BULACAN,CITY OF MALOLOS  (Capital),BUNGAHAN,0,0,0,active,Non-Sectarian,Standalone School,True,False,False,,0300000000,Region III (Central Luzon),0301400000,Bulacan,0301410000,City of Malolos ,0301410013,Bungahan,0301410055,psgc_mismatch,R,1st
400149,"Mary Help of Christians Seminary, Inc.",16.0326,120.2702,valid,,Region I,Region I,"Pangasinan I, Lingayen",PANGASINAN,BINMALEY,POBLACION,1,1,0,active,Sectarian,Standalone School,False,True,True,"GAS,HUMSS",0100000000,Region I (Ilocos Region),0105500000,Pangasinan,0105513000,Binmaley,0105513026,Poblacion,0105513031,psgc_mismatch,U,1st
400151,"Señor Santiago Learning Center of Bolinao Pangasinan, Inc.",16.38818,119.8936,valid,,Region I,Region I,"Pangasinan I, Lingayen",PANGASINAN,BOLINAO,GERMINAL (POB.),1,1,0,active,Sectarian,Standalone School,True,True,True,"ABM,HUMSS,STEM",0100000000,Region I (Ilocos Region),0105500000,Pangasinan,0105514000,Bolinao,0105514011,Germinal ,0105514011,psgc_match,U,1st
400153,St. Andrew Catholic School,14.57929,121.06494,suspect,placeholder_default,Region I,Region I,"Pangasinan I, Lingayen",PANGASINAN,BUGALLON,POBLACION,1,0,0,active,Sectarian,Standalone School,True,True,False,,0100000000,Region I (Ilocos Region),0105500000,Pangasinan,0105515000,Bugallon,0105515016,Poblacion,1381200013,psgc_mismatch,U,1st
400154,Calasiao Educational Center,16.00597,120.35439,valid,,Region I,Region I,"Pangasinan I, Lingayen",PANGASINAN,CALASIAO,NALSIAN,1,0,0,active,Sectarian,Standalone School,True,True,False,,0100000000,Region I (Ilocos Region),0105500000,Pangasinan,0105517000,Calasiao,0105517017,Nalsian,0105517010,psgc_mismatch,U,1st
400155,Precious Minds Montessori and High School,16.0104913,120.3531346,valid,,Region I,Region I,"Pangasinan I, Lingayen",PANGASINAN,CALASIAO,POBLACION WEST,1,0,0,active,Non-Sectarian,Standalone School,True,True,False,,0100000000,Region I (Ilocos Region),0105500000,Pangasinan,0105517000,Calasiao,0105517019,Poblacion West,0105517017,psgc_mismatch,U,1st
400156,"Dasol Catholic School,Inc",,,no_coords,out_of_bounds,Region I,Region I,"Pangasinan I, Lingayen",PANGASINAN,DASOL,POBLACION,1,1,1,active,Sectarian,Standalone School,True,True,True,"ABM,HUMSS,STEM",0100000000,Region I (Ilocos Region),0105500000,Pangasinan,0105519000,Dasol,0105519014,Poblacion,,psgc_no_validation,R,2nd
400157,"Don Marcelo Jimenez Memorial Polytechnic Institute, Inc.",16.055545,119.86712,valid,,Region I,Region I,"Pangasinan I, Lingayen",PANGASINAN,DASOL,POBLACION,1,1,0,active,Non-Sectarian,Standalone School,False,True,True,"ABM,HUMSS,STEM,TVL",0100000000,Region I (Ilocos Region),0105500000,Pangasinan,0105519000,Dasol,0105519014,Poblacion,0105516007,psgc_mismatch,R,2nd
400158,"St. John's Institute, Inc.",15.82487,119.90425,valid,,Region I,Region I,"Pangasinan I, Lingayen",PANGASINAN,INFANTA,POBLACION,1,1,0,active,Non-Sectarian,Standalone School,False,True,True,"ABM,HUMSS,STEM",0100000000,Region I (Ilocos Region),0105500000,Pangasinan,0105520000,Infanta,0105520012,Poblacion,0105520012,psgc_match,R,2nd
400159,St. Columban's School Inc.,16.0262618,120.1456458,valid,,Region I,Region I,"Pangasinan I, Lingayen",PANGASINAN,LABRADOR,POBLACION,1,1,0,active,Non-Sectarian,Standalone School,True,True,True,"ABM,HUMSS,STEM,TVL",0100000000,Region I (Ilocos Region),0105500000,Pangasinan,0105521000,Labrador,0105521006,Poblacion,0105521006,psgc_match,U,3rd
400160,The Adelphi College,16.029456,120.228682,valid,,Region I,Region I,"Pangasinan I, Lingayen",PANGASINAN,LINGAYEN (Capital),POBLACION,1,1,0,active,Non-Sectarian,Standalone School,True,True,True,"GAS,HUMSS",0100000000,Region I (Ilocos Region),0105500000,Pangasinan,0105522000,Lingayen ,0105522028,Poblacion,0105522028,psgc_match,U,1st
400162,"Grace Baptist Learning Center of GFBC, Inc",16.0301603,120.2281067,valid,,Region I,Region I,"Pangasinan I, Lingayen",PANGASINAN,LINGAYEN (Capital),POBLACION,0,0,0,active,Non-Sectarian,Standalone School,True,True,False,,0100000000,Region I (Ilocos Region),0105500000,Pangasinan,0105522000,Lingayen ,0105522028,Poblacion,0105522028,psgc_match,U,1st
400163,"Harvent School Foundation, Inc.",16.0256875,120.2340625,valid,,Region I,Region I,"Pangasinan I, Lingayen",PANGASINAN,LINGAYEN (Capital),POBLACION,0,0,0,active,Sectarian,Standalone School,True,True,False,,0100000000,Region I (Ilocos Region),0105500000,Pangasinan,0105522000,Lingayen ,0105522028,Poblacion,0105522028,psgc_match,U,1st
400164,Jesus Good Shepherd Development Center,,,no_coords,invalid,Region I,Region I,"Pangasinan I, Lingayen",PANGASINAN,LINGAYEN (Capital),POBLACION,0,0,0,active,Sectarian,Standalone School,True,False,False,,0100000000,Region I (Ilocos Region),0105500000,Pangasinan,0105522000,Lingayen ,0105522028,Poblacion,,psgc_no_validation,U,1st
400165,"JN Montessori and High School, Inc.",16.0233703,120.2340739,valid,,Region I,Region I,"Pangasinan I, Lingayen",PANGASINAN,LINGAYEN (Capital),POBLACION,0,0,0,active,Sectarian,Standalone School,True,True,False,,0100000000,Region I (Ilocos Region),0105500000,Pangasinan,0105522000,Lingayen ,0105522028,Poblacion,0105522028,psgc_match,U,1st
400168,Saint Columban's College,16.0210981,120.2306769,valid,,Region I,Region I,"Pangasinan I, Lingayen",PANGASINAN,LINGAYEN (Capital),POBLACION,1,1,0,active,Sectarian,Standalone School,True,True,True,"ABM,HUMSS,STEM,TVL",0100000000,Region I (Ilocos Region),0105500000,Pangasinan,0105522000,Lingayen ,0105522028,Poblacion,0105522028,psgc_match,U,1st
400169,"St. Columban's Institute o9f Domalandan, Inc.",16.0076,120.19582,valid,,Region I,Region I,"Pangasinan I, Lingayen",PANGASINAN,LINGAYEN (Capital),DOMALANDAN CENTER,1,1,1,active,Sectarian,Standalone School,True,True,True,"ABM,GAS,HUMSS",0100000000,Region I (Ilocos Region),0105500000,Pangasinan,0105522000,Lingayen ,0105522009,Domalandan Center,0105522009,psgc_match,R,1st
400170,Riverview High School,,,no_coords,invalid,Region I,Region I,"Pangasinan I, Lingayen",PANGASINAN,MABINI,POBLACION,1,1,0,active,Non-Sectarian,Standalone School,False,True,True,"ABM,HUMSS,STEM",0100000000,Region I (Ilocos Region),0105500000,Pangasinan,0105523000,Mabini,0105523016,Poblacion,,psgc_no_validation,U,2nd
400171,First Asian Learning Center of Northern Luzon,15.919826,120.427721,valid,,Region I,Region I,"Pangasinan I, Lingayen",PANGASINAN,MALASIQUI,POBLACION,0,0,0,active,Non-Sectarian,Standalone School,True,True,False,,0100000000,Region I (Ilocos Region),0105500000,Pangasinan,0105524000,Malasiqui,0105524062,Poblacion,0105524022,psgc_mismatch,U,1st
400172,"Malasiqui Adventist School, Inc.",14.57929,121.06494,suspect,placeholder_default,Region I,Region I,"Pangasinan I, Lingayen",PANGASINAN,MALASIQUI,POBLACION,0,0,0,active,Sectarian,Standalone School,True,False,False,,0100000000,Region I (Ilocos Region),0105500000,Pangasinan,0105524000,Malasiqui,0105524062,Poblacion,1381200013,psgc_mismatch,U,1st
400173,"Malasiqui Agno Valley College, Inc.",15.91888,120.41237,valid,,Region I,Region I,"Pangasinan I, Lingayen",PANGASINAN,MALASIQUI,POBLACION,1,1,0,active,Sectarian,Standalone School,True,True,True,"ABM,HUMSS,STEM,TVL",0100000000,Region I (Ilocos Region),0105500000,Pangasinan,0105524000,Malasiqui,0105524062,Poblacion,0105524062,psgc_match,U,1st
400174,Malasiqui Catholic School,15.919499,120.41416,valid,,Region I,Region I,"Pangasinan I, Lingayen",PANGASINAN,MALASIQUI,POBLACION,1,1,0,active,Sectarian,Standalone School,True,True,True,"ABM,HUMSS,STEM,TVL",0100000000,Region I (Ilocos Region),0105500000,Pangasinan,0105524000,Malasiqui,0105524062,Poblacion,0105524062,psgc_match,U,1st
400175,Perpetual Help College of Pangasinan,,,no_coords,invalid,Region I,Region I,"Pangasinan I, Lingayen",PANGASINAN,MALASIQUI,POBLACION,1,1,0,active,Non-Sectarian,Standalone School,True,True,True,"ABM,HUMSS,STEM,TVL",0100000000,Region I (Ilocos Region),0105500000,Pangasinan,0105524000,Malasiqui,0105524062,Poblacion,,psgc_no_validation,U,1st
400176,Mangatarem Catholic School,15.78821,120.29358,fixed_swap,,Region I,Region I,"Pangasinan I, Lingayen",PANGASINAN,MANGATAREM,MABINI (POB.),1,1,0,active,Non-Sectarian,Standalone School,True,True,True,"ABM,HUMSS,STEM",0100000000,Region I (Ilocos Region),0105500000,Pangasinan,0105527000,Mangatarem,0105527044,Mabini ,0105527044,psgc_match,R,1st
400177,Mystical Rose College of Science and Technology,15.79,120.3,suspect,round_coordinates,Region I,Region I,"Pangasinan I, Lingayen",PANGASINAN,MANGATAREM,POGON-LOMBOY (POB.),1,1,0,active,Non-Sectarian,Standalone School,True,True,True,"ABM,HUMSS,STEM,TVL",0100000000,Region I (Ilocos Region),0105500000,Pangasinan,0105527000,Mangatarem,0105527066,Pogon-Lomboy ,0105527066,psgc_match,R,1st
400178,REMLIFE DREAM SCHOOL,15.78787,120.29227,valid,,Region I,Region I,"Pangasinan I, Lingayen",PANGASINAN,MANGATAREM,GENERAL LUNA (POB.),0,0,0,active,Non-Sectarian,Standalone School,True,False,False,,0100000000,Region I (Ilocos Region),0105500000,Pangasinan,0105527000,Mangatarem,0105527039,General Luna ,0105527070,psgc_mismatch,R,1st
400179,Central Pangasinan Adventist School,,,no_coords,no_submission,Region I,Region I,"Pangasinan I, Lingayen",PANGASINAN,MAPANDAN,POBLACION,0,0,0,active,Non-Sectarian,Standalone School,True,True,False,,0100000000,Region I (Ilocos Region),0105500000,Pangasinan,0105528000,Mapandan,0105528014,Poblacion,,psgc_no_validation,U,3rd
400180,Mapandan Academy,16.02581,120.45571,valid,,Region I,Region I,"Pangasinan I, Lingayen",PANGASINAN,MAPANDAN,POBLACION,1,0,0,active,Non-Sectarian,Standalone School,False,True,False,,0100000000,Region I (Ilocos Region),0105500000,Pangasinan,0105528000,Mapandan,0105528014,Poblacion,0105528014,psgc_match,U,3rd
400181,"Mapandan Catholic School, Inc.",14.57929,121.06494,suspect,placeholder_default,Region I,Region I,"Pangasinan I, Lingayen",PANGASINAN,MAPANDAN,POBLACION,1,1,0,active,Sectarian,Standalone School,True,True,True,"ABM,GAS,HUMSS,STEM",0100000000,Region I (Ilocos Region),0105500000,Pangasinan,0105528000,Mapandan,0105528014,Poblacion,1381200013,psgc_mismatch,U,3rd
400182,Horizon Educational Learning Centre,15.98141,120.47371,valid,,Region I,Region I,"Pangasinan I, Lingayen",PANGASINAN,SANTA BARBARA,MINIEN WEST,0,0,0,active,Non-Sectarian,Standalone School,True,False,False,,0100000000,Region I (Ilocos Region),0105500000,Pangasinan,0105538000,Santa Barbara,0105538017,Minien West,0105538017,psgc_match,U,1st
400183,Living Lights Learning Center,16.002184,120.402826,valid,,Region I,Region I,"Pangasinan I, Lingayen",PANGASINAN,SANTA BARBARA,POBLACION NORTE,0,0,0,active,Non-Sectarian,Standalone School,True,False,False,,0100000000,Region I (Ilocos Region),0105500000,Pangasinan,0105538000,Santa Barbara,0105538021,Poblacion Norte,0105538021,psgc_match,R,1st
400184,"Pevhee Izel School, Inc.",16.000302,120.399346,valid,,Region I,Region I,"Pangasinan I, Lingayen",PANGASINAN,SANTA BARBARA,POBLACION SUR,0,0,0,active,Non-Sectarian,Standalone School,True,True,True,,0100000000,Region I (Ilocos Region),0105500000,Pangasinan,0105538000,Santa Barbara,0105538022,Poblacion Sur,0105538021,psgc_mismatch,R,1st
400185,"Adventist School of Urbiztondo, Inc.",14.57929,121.06494,suspect,placeholder_default,Region I,Region I,"Pangasinan I, Lingayen",PANGASINAN,URBIZTONDO,POBLACION,0,0,0,active,Sectarian,Standalone School,True,False,False,,0100000000,Region I (Ilocos Region),0105500000,Pangasinan,0105545000,Urbiztondo,0105545018,Poblacion,1381200013,psgc_mismatch,U,1st
400186,"URBIZTONDO CATHOLIC SCHOOL, INC.",15.82225,120.33027,valid,,Region I,Region I,"Pangasinan I, Lingayen",PANGASINAN,URBIZTONDO,POBLACION,1,1,0,active,Sectarian,Standalone School,True,True,True,"ABM,HUMSS,STEM,TVL",0100000000,Region I (Ilocos Region),0105500000,Pangasinan,0105545000,Urbiztondo,0105545018,Poblacion,0105545018,psgc_match,U,1st
400188,"Holy Family Educational Institution, Inc.",15.8472352,120.5240905,valid,,Region I,Region I,"Pangasinan II, Binalonan",PANGASINAN,ALCALA,PINDANGAN WEST,0,0,0,active,Non-Sectarian,Standalone School,True,True,False,,0100000000,Region I (Ilocos Region),0105500000,Pangasinan,0105504000,Alcala,0105504014,Pindangan West,0105504018,psgc_mismatch,R,1st
400192,"Carosucan Adventist Multigrade School, Inc.",15.9429294,120.6249231,valid,,Region I,Region I,"Pangasinan II, Binalonan",PANGASINAN,ASINGAN,CAROSUCAN SUR,0,0,0,active,Non-Sectarian,Standalone School,True,False,False,,0100000000,Region I (Ilocos Region),0105500000,Pangasinan,0105506000,Asingan,0105506010,Carosucan Sur,0105506010,psgc_match,R,1st
400193,Little Learners Guided Educational Center,,,no_coords,invalid,Region I,Region I,"Pangasinan II, Binalonan",PANGASINAN,ASINGAN,POBLACION WEST,0,0,0,active,Non-Sectarian,Standalone School,True,False,False,,0100000000,Region I (Ilocos Region),0105500000,Pangasinan,0105506000,Asingan,0105506017,Poblacion West,,psgc_no_validation,U,1st
400195,The Salvation Army Educational Services Inc.,16.0005744754082,120.669576393897,valid,,Region I,Region I,"Pangasinan II, Binalonan",PANGASINAN,ASINGAN,BARO,1,0,0,active,Non-Sectarian,Standalone School,True,True,False,,0100000000,Region I (Ilocos Region),0105500000,Pangasinan,0105506000,Asingan,0105506005,Baro,0105506005,psgc_match,R,1st
400198,"Tacurong St. Benedict Learning Center & Values School, Inc.",14.57929,121.06494,suspect,placeholder_default,Region XII,Region XII,Tacurong City,SULTAN KUDARAT,CITY OF TACURONG,BUENAFLOR,1,0,0,active,Sectarian,Standalone School,True,True,False,,1200000000,Region XII (SOCCSKSARGEN),1206500000,Sultan Kudarat,1206511000,City of Tacurong,1206511002,Buenaflor,1381200013,psgc_mismatch,U,3rd
400199,Holy Child Academy,16.04453,120.59201,valid,,Region I,Region I,"Pangasinan II, Binalonan",PANGASINAN,BINALONAN,POBLACION,1,1,0,active,Sectarian,Standalone School,True,True,True,"ABM,GAS,HUMSS",0100000000,Region I (Ilocos Region),0105500000,Pangasinan,0105512000,Binalonan,0105512015,Poblacion,0105512015,psgc_match,U,1st
400200,St. Michael School of Tacurong City,6.6873403,124.6749933,fixed_swap,,Region XII,Region XII,Tacurong City,SULTAN KUDARAT,CITY OF TACURONG,POBLACION,0,0,0,active,Non-Sectarian,Standalone School,True,False,False,,1200000000,Region XII (SOCCSKSARGEN),1206500000,Sultan Kudarat,1206511000,City of Tacurong,1206511013,Poblacion,1206511013,psgc_match,U,3rd
400201,Sta. Fe Learning Center,16.0933,120.5818,valid,,Region I,Region I,"Pangasinan II, Binalonan",PANGASINAN,BINALONAN,POBLACION,0,0,0,active,Non-Sectarian,Standalone School,True,False,False,,0100000000,Region I (Ilocos Region),0105500000,Pangasinan,0105512000,Binalonan,0105512015,Poblacion,0105541018,psgc_mismatch,U,1st
400202,Academy of St. Anthony of Padua Inc.,16.0487,120.4759,valid,,Region I,Region I,"Pangasinan II, Binalonan",PANGASINAN,MANAOAG,BABASIT,1,1,0,active,Non-Sectarian,Standalone School,True,True,True,"ABM,HUMSS,STEM",0100000000,Region I (Ilocos Region),0105500000,Pangasinan,0105525000,Manaoag,0105525002,Babasit,0105525002,psgc_match,U,1st
400203,Family Child Development School,19.29947,121.44617,valid,,Region I,Region I,"Pangasinan II, Binalonan",PANGASINAN,MANAOAG,POBLACION,1,1,1,active,Sectarian,Standalone School,True,True,True,HUMSS,0100000000,Region I (Ilocos Region),0105500000,Pangasinan,0105525000,Manaoag,0105525039,Poblacion,0201509006,psgc_mismatch,U,1st
400204,Golden Seeds Guidance Montessori School,,,no_coords,not_in_lis,Region I,Region I,"Pangasinan II, Binalonan",PANGASINAN,MANAOAG,ORAAN EAST,0,0,0,active,Non-Sectarian,Standalone School,True,True,False,,0100000000,Region I (Ilocos Region),0105500000,Pangasinan,0105525000,Manaoag,0105525033,Oraan East,,psgc_no_validation,R,1st
400205,"Manaoag Adventst School, Inc.",14.57929,121.06494,suspect,placeholder_default,Region I,Region I,"Pangasinan II, Binalonan",PANGASINAN,MANAOAG,POBLACION,0,0,0,active,Non-Sectarian,Standalone School,True,False,False,,0100000000,Region I (Ilocos Region),0105500000,Pangasinan,0105525000,Manaoag,0105525039,Poblacion,1381200013,psgc_mismatch,U,1st
400206,COLEGIO de SAN JUAN de LETRAN - MANAOAG,16.04328,120.48878,valid,,Region I,Region I,"Pangasinan II, Binalonan",PANGASINAN,MANAOAG,POBLACION,1,1,0,active,Sectarian,Standalone School,True,True,True,"ABM,HUMSS,STEM,TVL",0100000000,Region I (Ilocos Region),0105500000,Pangasinan,0105525000,Manaoag,0105525039,Poblacion,0105525039,psgc_match,U,1st
400207,"Kairos Academy of Tacurong City, Inc.",6.671005,124.66225,valid,,Region XII,Region XII,Tacurong City,SULTAN KUDARAT,CITY OF TACURONG,NEW ISABELA,0,0,0,active,Non-Sectarian,Standalone School,True,False,False,,1200000000,Region XII (SOCCSKSARGEN),1206500000,Sultan Kudarat,1206511000,City of Tacurong,1206511010,New Isabela,1206511010,psgc_match,U,3rd
400208,Aura Vista Montessori School & High School,16.05883,120.39597,valid,,Region I,Region I,"Pangasinan II, Binalonan",PANGASINAN,MANGALDAN,BARI,1,0,0,active,Non-Sectarian,Standalone School,True,True,False,,0100000000,Region I (Ilocos Region),0105500000,Pangasinan,0105526000,Mangaldan,0105526006,Bari,0105526006,psgc_match,U,1st
400209,"Bethel Christian Learning Center of Mangaldan Baptist Church, Inc",16.072402,120.404101,valid,,Region I,Region I,"Pangasinan II, Binalonan",PANGASINAN,MANGALDAN,POBLACION,0,0,0,active,Non-Sectarian,Standalone School,True,True,False,,0100000000,Region I (Ilocos Region),0105500000,Pangasinan,0105526000,Mangaldan,0105526025,Poblacion,0105526025,psgc_match,U,1st
400210,Cherished Moment School,16.0642,120.4042,valid,,Region I,Region I,"Pangasinan II, Binalonan",PANGASINAN,MANGALDAN,BARI,1,1,0,active,Non-Sectarian,Standalone School,True,True,True,"ABM,HUMSS,STEM",0100000000,Region I (Ilocos Region),0105500000,Pangasinan,0105526000,Mangaldan,0105526006,Bari,0105526006,psgc_match,U,1st
400211,"Golden Angels Educational Institution, Inc.",16.08132,120.396682,valid,,Region I,Region I,"Pangasinan II, Binalonan",PANGASINAN,MANGALDAN,POBLACION,0,0,0,active,Non-Sectarian,Standalone School,True,False,False,,0100000000,Region I (Ilocos Region),0105500000,Pangasinan,0105526000,Mangaldan,0105526025,Poblacion,0105526028,psgc_mismatch,U,1st
400212,Metro Dagupan Colleges Productivity High School,16.0813226588802,120.396691138786,valid,,Region I,Region I,"Pangasinan II, Binalonan",PANGASINAN,MANGALDAN,POBLACION,1,1,0,active,Non-Sectarian,Standalone School,False,True,True,"ABM,HUMSS,STEM,TVL",0100000000,Region I (Ilocos Region),0105500000,Pangasinan,0105526000,Mangaldan,0105526025,Poblacion,0105526028,psgc_mismatch,U,1st
400213,"Santo Tomas Catholic School, Inc.",16.0712,120.4044,valid,,Region I,Region I,"Pangasinan II, Binalonan",PANGASINAN,MANGALDAN,POBLACION,1,1,0,active,Sectarian,Standalone School,True,True,True,"ABM,GAS,HUMSS,STEM",0100000000,Region I (Ilocos Region),0105500000,Pangasinan,0105526000,Mangaldan,0105526025,Poblacion,0105526025,psgc_match,U,1st
400214,"The United Methodist Church Cinderella School, Inc.",16.0703319689577,120.403102233073,valid,,Region I,Region I,"Pangasinan II, Binalonan",PANGASINAN,MANGALDAN,POBLACION,0,0,0,active,Non-Sectarian,Standalone School,True,True,False,,0100000000,Region I (Ilocos Region),0105500000,Pangasinan,0105526000,Mangaldan,0105526025,Poblacion,0105526025,psgc_match,U,1st
400215,"Movers Academy, Incorporated",16.041281,120.793744,valid,,Region I,Region I,"Pangasinan II, Binalonan",PANGASINAN,NATIVIDAD,POBLACION WEST,1,1,0,active,Non-Sectarian,Standalone School,True,True,True,"ABM,HUMSS,STEM",0100000000,Region I (Ilocos Region),0105500000,Pangasinan,0105529000,Natividad,0105529012,Poblacion West,0105529012,psgc_match,R,3rd
400217,"Mary Help of Christians Learning Center Foundation, Inc.",16.11155,120.54591,valid,,Region I,Region I,"Pangasinan II, Binalonan",PANGASINAN,POZORRUBIO,POBLACION III,0,0,0,active,Sectarian,Standalone School,True,False,False,,0100000000,Region I (Ilocos Region),0105500000,Pangasinan,0105530000,Pozorrubio,0105530028,Poblacion III,0105530028,psgc_match,R,1st
400218,St. Philomena's Academy,16.11139,120.5447,valid,,Region I,Region I,"Pangasinan II, Binalonan",PANGASINAN,POZORRUBIO,POBLACION III,1,1,0,active,Sectarian,Standalone School,True,True,True,"ABM,HUMSS,STEM,TVL",0100000000,Region I (Ilocos Region),0105500000,Pangasinan,0105530000,Pozorrubio,0105530028,Poblacion III,0105530028,psgc_match,R,1st
400220,The Little Shoe Integrated School,15.8730824,120.6030332,valid,,Region I,Region I,"Pangasinan II, Binalonan",PANGASINAN,ROSALES,CARMEN WEST,0,0,0,active,Non-Sectarian,Standalone School,True,True,False,,0100000000,Region I (Ilocos Region),0105500000,Pangasinan,0105531000,Rosales,0105531010,Carmen West,0105531010,psgc_match,U,1st
400221,Livingstone Christian Academy,15.8612555,120.6314948,valid,,Region I,Region I,"Pangasinan II, Binalonan",PANGASINAN,ROSALES,TOMANA WEST,0,0,0,active,Non-Sectarian,Standalone School,True,True,False,,0100000000,Region I (Ilocos Region),0105500000,Pangasinan,0105531000,Rosales,0105531032,Tomana West,0105531018,psgc_mismatch,U,1st
400222,Rosales Adventist Multigrade School Inc,15.8928,120.63661,valid,,Region I,Region I,"Pangasinan II, Binalonan",PANGASINAN,ROSALES,ZONE V (POB.),0,0,0,active,Sectarian,Standalone School,True,False,False,,0100000000,Region I (Ilocos Region),0105500000,Pangasinan,0105531000,Rosales,0105531039,Zone V ,0105531039,psgc_match,R,1st
400223,Wesleyan Kindergarten Training Center,6.697504,124.678828,valid,,Region XII,Region XII,Tacurong City,SULTAN KUDARAT,CITY OF TACURONG,POBLACION,0,0,0,active,Sectarian,Standalone School,True,False,False,,1200000000,Region XII (SOCCSKSARGEN),1206500000,Sultan Kudarat,1206511000,City of Tacurong,1206511013,Poblacion,1206511013,psgc_match,U,3rd
400224,"Rosales Wesleyan Academy,Inc.",,,no_coords,invalid,Region I,Region I,"Pangasinan II, Binalonan",PANGASINAN,ROSALES,SAN PEDRO WEST,0,1,0,active,Non-Sectarian,Standalone School,True,True,True,"GAS,HUMSS",0100000000,Region I (Ilocos Region),0105500000,Pangasinan,0105531000,Rosales,0105531026,San Pedro West,,psgc_no_validation,R,1st
400225,Archdiocesan School of San Fabian,16.121783662005,120.401962040641,valid,,Region I,Region I,"Pangasinan II, Binalonan",PANGASINAN,SAN FABIAN,POBLACION,1,1,0,active,Non-Sectarian,Standalone School,True,True,True,"ABM,GAS,HUMSS,STEM",0100000000,Region I (Ilocos Region),0105500000,Pangasinan,0105533000,San Fabian,0105533020,Poblacion,0105533016,psgc_mismatch,U,1st
400227,"Joyland School, Inc.",16.1241305,120.404827,valid,,Region I,Region I,"Pangasinan II, Binalonan",PANGASINAN,SAN FABIAN,POBLACION,1,1,0,active,Non-Sectarian,Standalone School,True,True,True,"ABM,HUMSS,STEM",0100000000,Region I (Ilocos Region),0105500000,Pangasinan,0105533000,San Fabian,0105533020,Poblacion,0105533020,psgc_match,U,1st
400228,"Marian School of San Fabian, Inc.",16.1648,120.4078,valid,,Region I,Region I,"Pangasinan II, Binalonan",PANGASINAN,SAN FABIAN,POBLACION,0,0,0,active,Non-Sectarian,Standalone School,True,False,False,,0100000000,Region I (Ilocos Region),0105500000,Pangasinan,0105533000,San Fabian,0105533020,Poblacion,,psgc_no_validation,U,1st
400229,St. Blaise Christian School Inc.,16.113761,120.398259,valid,,Region I,Region I,"Pangasinan II, Binalonan",PANGASINAN,SAN FABIAN,CAYANGA,1,0,0,active,Non-Sectarian,Standalone School,True,True,False,,0100000000,Region I (Ilocos Region),0105500000,Pangasinan,0105533000,San Fabian,0105533010,Cayanga,0105533010,psgc_match,U,1st
400230,"San Jacinto Catholic School, Inc.",16.073519,120.436644,valid,,Region I,Region I,"Pangasinan II, Binalonan",PANGASINAN,SAN JACINTO,CAPAOAY (POB.),1,1,0,active,Sectarian,Standalone School,True,True,True,"ABM,GAS,HUMSS,STEM,TVL",0100000000,Region I (Ilocos Region),0105500000,Pangasinan,0105534000,San Jacinto,0105534003,Capaoay ,0105534003,psgc_match,U,1st
400231,St. Mary's Dominican School,16.0,120.0,suspect,coordinate_cluster,Region I,Region I,"Pangasinan II, Binalonan",PANGASINAN,SAN MANUEL,GUISET NORTE (POB.),1,1,0,active,Sectarian,Standalone School,True,True,True,"HUMSS,STEM",0100000000,Region I (Ilocos Region),0105500000,Pangasinan,0105535000,San Manuel,0105535007,Guiset Norte ,0105523020,psgc_mismatch,U,1st
400232,Children's Learning Center,16.0693185,120.7600529,valid,,Region I,Region I,"Pangasinan II, Binalonan",PANGASINAN,SAN NICOLAS,POBLACION WEST,1,0,0,active,Non-Sectarian,Standalone School,True,False,False,,0100000000,Region I (Ilocos Region),0105500000,Pangasinan,0105536000,San Nicolas,0105536021,Poblacion West,0105536021,psgc_match,R,1st
400233,"St. Thomas Aquinas Learning Center of Vigan City, Inc.",17.57216,120.38802,valid,,Region I,Region I,Vigan City,ILOCOS SUR,CITY OF VIGAN (Capital),BARANGAY I (POB.),0,0,0,active,Non-Sectarian,Standalone School,True,False,False,,0100000000,Region I (Ilocos Region),0102900000,Ilocos Sur,0102934000,City of Vigan ,0102934003,Barangay I ,0102934003,psgc_match,U,4th
400234,Red Arrow High School,16.06844,120.7607,valid,,Region I,Region I,"Pangasinan II, Binalonan",PANGASINAN,SAN NICOLAS,POBLACION WEST,1,1,0,active,Sectarian,Standalone School,False,True,True,"ABM,HUMSS,STEM,TVL",0100000000,Region I (Ilocos Region),0105500000,Pangasinan,0105536000,San Nicolas,0105536021,Poblacion West,0105536018,psgc_mismatch,R,1st
400235,"San Quintin High School Educational Foundation, Inc.",15.9826581326963,120.811811217642,valid,,Region I,Region I,"Pangasinan II, Binalonan",PANGASINAN,SAN QUINTIN,POBLACION ZONE I,1,1,0,active,Sectarian,Standalone School,False,True,False,,0100000000,Region I (Ilocos Region),0105500000,Pangasinan,0105537000,San Quintin,0105537022,Poblacion Zone I,0105537022,psgc_match,R,2nd
400236,"St. Mary's Integrated School, Inc.",15.97877,120.69764,valid,,Region I,Region I,"Pangasinan II, Binalonan",PANGASINAN,SANTA MARIA,POBLACION WEST,1,1,0,active,Non-Sectarian,Standalone School,True,True,True,"ABM,GAS,STEM",0100000000,Region I (Ilocos Region),0105500000,Pangasinan,0105539000,Santa Maria,0105539015,Poblacion West,0105539015,psgc_match,U,2nd
400237,Our Lady of the Pillar Catholic School,15.97898,120.70041,valid,,Region I,Region I,"Pangasinan II, Binalonan",PANGASINAN,SANTA MARIA,POBLACION EAST,0,0,0,active,Sectarian,Standalone School,True,False,False,,0100000000,Region I (Ilocos Region),0105500000,Pangasinan,0105539000,Santa Maria,0105539014,Poblacion East,0105539014,psgc_match,R,2nd
400238,Northern Luzon Adventist College,16.194138,120.516409,valid,,Region I,Region I,"Pangasinan II, Binalonan",PANGASINAN,SISON,ARTACHO,1,1,0,active,Sectarian,Standalone School,True,True,True,"ABM,HUMSS,STEM",0100000000,Region I (Ilocos Region),0105500000,Pangasinan,0105541000,Sison,0105541004,Artacho,0105541004,psgc_match,U,1st
400239,"Our Lady of Mount Carmel, Incorporated",16.17058,120.5101,valid,,Region I,Region I,"Pangasinan II, Binalonan",PANGASINAN,SISON,POBLACION CENTRAL,1,1,1,active,Sectarian,Standalone School,True,True,True,GAS,0100000000,Region I (Ilocos Region),0105500000,Pangasinan,0105541000,Sison,0105541024,Poblacion Central,0105541026,psgc_mismatch,R,1st
400240,"Luna Colleges, Inc.",14.57929,121.06494,suspect,placeholder_default,Region I,Region I,"Pangasinan II, Binalonan",PANGASINAN,TAYUG,AMISTAD,1,1,0,active,Non-Sectarian,Standalone School,True,True,True,"GAS,HUMSS,TVL",0100000000,Region I (Ilocos Region),0105500000,Pangasinan,0105543000,Tayug,0105543002,Amistad,1381200013,psgc_mismatch,R,1st
400241,Rosales Christian Learning Center,,,no_coords,out_of_bounds,Region I,Region I,"Pangasinan II, Binalonan",PANGASINAN,ROSALES,ZONE IV (POB.),0,0,0,active,Sectarian,Standalone School,True,False,False,,0100000000,Region I (Ilocos Region),0105500000,Pangasinan,0105531000,Rosales,0105531034,Zone IV ,,psgc_no_validation,U,1st
400242,"St. Patrick Catholic School, Inc.",16.02881,120.74508,valid,,Region I,Region I,"Pangasinan II, Binalonan",PANGASINAN,TAYUG,BARANGAY A (POB.),0,0,0,active,Sectarian,Standalone School,True,False,False,,0100000000,Region I (Ilocos Region),0105500000,Pangasinan,0105543000,Tayug,0105543014,Barangay A ,0105543014,psgc_match,U,1st
400243,Tayug Foundational Christian Academy,,,no_coords,invalid,Region I,Region I,"Pangasinan II, Binalonan",PANGASINAN,TAYUG,AMISTAD,1,1,0,active,Non-Sectarian,Standalone School,True,True,True,,0100000000,Region I (Ilocos Region),0105500000,Pangasinan,0105543000,Tayug,0105543002,Amistad,,psgc_no_validation,R,1st
400245,Immaculate Conception Catholic School,15.92603,120.84095,valid,,Region I,Region I,"Pangasinan II, Binalonan",PANGASINAN,UMINGAN,POBLACION WEST,1,1,0,active,Non-Sectarian,Standalone School,True,True,True,"ABM,GAS,HUMSS,STEM",0100000000,Region I (Ilocos Region),0105500000,Pangasinan,0105544000,Umingan,0105544047,Poblacion West,0105544047,psgc_match,U,1st
400246,Quezon Memorial Academy,,,no_coords,invalid,Region I,Region I,"Pangasinan II, Binalonan",PANGASINAN,UMINGAN,POBLACION WEST,1,1,0,active,Non-Sectarian,Standalone School,True,True,True,"ABM,HUMSS,STEM",0100000000,Region I (Ilocos Region),0105500000,Pangasinan,0105544000,Umingan,0105544047,Poblacion West,,psgc_no_validation,U,1st
400247,"Cleverkids School, Inc.",15.890833,120.590833,valid,,Region I,Region I,"Pangasinan II, Binalonan",PANGASINAN,VILLASIS,PUELAY,0,0,0,active,Non-Sectarian,Standalone School,True,False,False,,0100000000,Region I (Ilocos Region),0105500000,Pangasinan,0105547000,Villasis,0105547017,Puelay,0105547017,psgc_match,U,1st
400249,St. Anthony Abbot Academy,,,no_coords,invalid,Region I,Region I,"Pangasinan II, Binalonan",PANGASINAN,VILLASIS,ZONE I (POB.),1,1,0,active,Sectarian,Standalone School,True,True,True,"ABM,HUMSS,STEM,TVL",0100000000,Region I (Ilocos Region),0105500000,Pangasinan,0105547000,Villasis,0105547013,Zone I ,,psgc_no_validation,U,1st
400250,"Stars Educational Center, Inc.",15.89114,120.59117,valid,,Region I,Region I,"Pangasinan II, Binalonan",PANGASINAN,VILLASIS,PUELAY,0,0,0,active,Non-Sectarian,Standalone School,True,False,False,,0100000000,Region I (Ilocos Region),0105500000,Pangasinan,0105547000,Villasis,0105547017,Puelay,0105547017,psgc_match,U,1st
400252,"University of Pangasinan, Inc.",14.57929,121.06494,suspect,placeholder_default,Region I,Region I,Dagupan City,PANGASINAN,DAGUPAN CITY,PANTAL,1,1,0,active,Non-Sectarian,Standalone School,False,False,True,"ABM,GAS,HUMSS,STEM,TVL",0100000000,Region I (Ilocos Region),0105500000,Pangasinan,0105518000,City of Dagupan,0105518022,Pantal,1381200013,psgc_mismatch,U,2nd
400253,St. Michael School By-The-Sea,16.0795634975777,120.348684879732,valid,,Region I,Region I,Dagupan City,PANGASINAN,DAGUPAN CITY,BONUAN GUESET,1,1,0,active,Non-Sectarian,Standalone School,True,True,True,"ABM,GAS",0100000000,Region I (Ilocos Region),0105500000,Pangasinan,0105518000,City of Dagupan,0105518009,Bonuan Gueset,0105518009,psgc_match,U,2nd
400254,Lyceum-Northwestern University Creative Montessori Center,16.0354,120.3305,suspect,coordinate_cluster,Region I,Region I,Dagupan City,PANGASINAN,DAGUPAN CITY,TAPUAC,1,1,0,active,Non-Sectarian,Standalone School,True,True,True,"ABM,HUMSS,Maritime,STEM,TVL",0100000000,Region I (Ilocos Region),0105500000,Pangasinan,0105518000,City of Dagupan,0105518031,Tapuac,0105518031,psgc_match,U,2nd
400255,Divine Word Academy of Dagupan,16.0,120.0,suspect,coordinate_cluster,Region I,Region I,Dagupan City,PANGASINAN,DAGUPAN CITY,POGO CHICO,1,1,0,active,Sectarian,Standalone School,True,True,True,"ABM,HUMSS,STEM",0100000000,Region I (Ilocos Region),0105500000,Pangasinan,0105518000,City of Dagupan,0105518025,Pogo Chico,0105523020,psgc_mismatch,U,2nd
400256,Dominican School,16.0326709,120.3310418,valid,,Region I,Region I,Dagupan City,PANGASINAN,DAGUPAN CITY,TAPUAC,1,1,0,active,Sectarian,Standalone School,True,True,True,"ABM,STEM",0100000000,Region I (Ilocos Region),0105500000,Pangasinan,0105518000,City of Dagupan,0105518031,Tapuac,0105518031,psgc_match,U,2nd
400257,"Casiphia Baptist Christian Academy, Inc.",7.97154,125.11535,valid,,Region X,Region X,Valencia City,BUKIDNON,CITY OF VALENCIA,MAILAG,0,0,0,active,Sectarian,Standalone School,True,False,False,,1000000000,Region X (Northern Mindanao),1001300000,Bukidnon,1001321000,City of Valencia,1001321020,Mailag,1001321020,psgc_match,U,1st
400258,Ednas School,16.03788,120.33201,valid,,Region I,Region I,Dagupan City,PANGASINAN,DAGUPAN CITY,TAPUAC,1,1,0,active,Non-Sectarian,Standalone School,True,True,True,"ABM,STEM",0100000000,Region I (Ilocos Region),0105500000,Pangasinan,0105518000,City of Dagupan,0105518031,Tapuac,0105518031,psgc_match,U,2nd
400259,Escuela de Nuestra Señora de la Salette,16.03468,120.33252,valid,,Region I,Region I,Dagupan City,PANGASINAN,DAGUPAN CITY,TAPUAC,1,1,0,active,Non-Sectarian,Standalone School,True,True,True,"ABM,HUMSS",0100000000,Region I (Ilocos Region),0105500000,Pangasinan,0105518000,City of Dagupan,0105518031,Tapuac,0105518031,psgc_match,U,2nd
400260,F. Q. Duque Med. Foundation Special Science HS,16.0354,120.3305,suspect,coordinate_cluster,Region I,Region I,Dagupan City,PANGASINAN,DAGUPAN CITY,TAPUAC,1,0,0,active,Non-Sectarian,Standalone School,False,True,False,,0100000000,Region I (Ilocos Region),0105500000,Pangasinan,0105518000,City of Dagupan,0105518031,Tapuac,0105518031,psgc_match,U,2nd
400261,"Harvent School Foundation of Dagupan City, Inc.",16.0374560646704,120.337674781674,valid,,Region I,Region I,Dagupan City,PANGASINAN,DAGUPAN CITY,POGO CHICO,0,0,0,active,Non-Sectarian,Standalone School,True,False,False,,0100000000,Region I (Ilocos Region),0105500000,Pangasinan,0105518000,City of Dagupan,0105518025,Pogo Chico,0105518025,psgc_match,U,2nd
400263,"La Marea Academy, Inc.",16.0313,120.33119,valid,,Region I,Region I,Dagupan City,PANGASINAN,DAGUPAN CITY,TAPUAC,1,1,0,active,Non-Sectarian,Standalone School,True,True,True,"ABM,HUMSS,STEM,TVL",0100000000,Region I (Ilocos Region),0105500000,Pangasinan,0105518000,City of Dagupan,0105518031,Tapuac,0105518031,psgc_match,U,2nd
400264,"Living Lights Academy Foundation, Inc.",16.0726389,120.3366533,valid,,Region I,Region I,Dagupan City,PANGASINAN,DAGUPAN CITY,BONUAN GUESET,0,0,0,active,Sectarian,Standalone School,True,True,False,,0100000000,Region I (Ilocos Region),0105500000,Pangasinan,0105518000,City of Dagupan,0105518009,Bonuan Gueset,0105518009,psgc_match,U,2nd
400265,University of Luzon,16.043,120.33,valid,,Region I,Region I,Dagupan City,PANGASINAN,DAGUPAN CITY,POGO CHICO,1,1,0,active,Non-Sectarian,Standalone School,True,True,True,"ABM,Arts and Design,GAS,HUMSS,STEM,TVL",0100000000,Region I (Ilocos Region),0105500000,Pangasinan,0105518000,City of Dagupan,0105518025,Pogo Chico,0105518023,psgc_mismatch,U,2nd
400266,LYCEUM-NORTHWESTERN UNIVERSITY GENERAL HIGH SCHOOL,16.0354,120.3305,suspect,coordinate_cluster,Region I,Region I,Dagupan City,PANGASINAN,DAGUPAN CITY,POBLACION OESTE,1,0,0,active,Non-Sectarian,Standalone School,False,True,False,,0100000000,Region I (Ilocos Region),0105500000,Pangasinan,0105518000,City of Dagupan,0105518023,Poblacion Oeste,0105518031,psgc_mismatch,U,2nd
400267,"Mother Goose Special School System, Inc.",16.03415,120.33194,valid,,Region I,Region I,Dagupan City,PANGASINAN,DAGUPAN CITY,TAPUAC,0,0,0,active,Non-Sectarian,Standalone School,True,True,True,"ABM,HUMSS,STEM",0100000000,Region I (Ilocos Region),0105500000,Pangasinan,0105518000,City of Dagupan,0105518031,Tapuac,0105518031,psgc_match,U,2nd
400269,Pangasinan Universal Institute,16.042611,120.339321,valid,,Region I,Region I,Dagupan City,PANGASINAN,DAGUPAN CITY,BARANGAY II (NUEVA),1,0,0,active,Non-Sectarian,Standalone School,True,True,False,,0100000000,Region I (Ilocos Region),0105500000,Pangasinan,0105518000,City of Dagupan,0105518003,Barangay II,0105518003,psgc_match,U,2nd
400270,St. Albert the Great School,16.0300707609247,120.335113070438,valid,,Region I,Region I,Dagupan City,PANGASINAN,DAGUPAN CITY,MALUED,1,1,0,active,Non-Sectarian,Standalone School,True,True,True,"ABM,HUMSS,STEM",0100000000,Region I (Ilocos Region),0105500000,Pangasinan,0105518000,City of Dagupan,0105518018,Malued,0105518018,psgc_match,U,2nd
400271,St. John's Cathedral School,16.024408,122.335337,valid,,Region I,Region I,Dagupan City,PANGASINAN,DAGUPAN CITY,BARANGAY IV (ZAMORA),1,1,0,active,Sectarian,Standalone School,True,True,True,"ABM,GAS,HUMSS,STEM",0100000000,Region I (Ilocos Region),0105500000,Pangasinan,0105518000,City of Dagupan,0105518004,Barangay IV,,psgc_no_validation,U,2nd
400272,"St. Robert Bellarmine Center for Learning, Inc.",,,no_coords,out_of_bounds,Region I,Region I,Dagupan City,PANGASINAN,DAGUPAN CITY,PANTAL,0,0,0,active,Non-Sectarian,Standalone School,True,False,False,,0100000000,Region I (Ilocos Region),0105500000,Pangasinan,0105518000,City of Dagupan,0105518022,Pantal,,psgc_no_validation,U,2nd
400274,"Wonderland School of Dagupan, Inc.",16.04433,120.34175,valid,,Region I,Region I,Dagupan City,PANGASINAN,DAGUPAN CITY,HERRERO,1,0,0,active,Non-Sectarian,Standalone School,True,True,False,,0100000000,Region I (Ilocos Region),0105500000,Pangasinan,0105518000,City of Dagupan,0105518013,Herrero,0105518013,psgc_match,U,2nd
400276,"Caterpillar Centre for Early Learners, Inc.",18.1945,120.3971,valid,,Region I,Region I,Laoag City,ILOCOS NORTE,LAOAG CITY (Capital),"BGY. NO. 23, SAN MATIAS (POB.)",0,0,0,active,Non-Sectarian,Standalone School,True,False,False,,0100000000,Region I (Ilocos Region),0102800000,Ilocos Norte,0102812000,City of Laoag ,0102812065,"Bgy. No. 23, San Matias ",,psgc_no_validation,U,3rd
400277,Divine Word College Laoag,18.12,120.16,suspect,round_coordinates,Region I,Region I,Laoag City,ILOCOS NORTE,LAOAG CITY (Capital),"BGY. NO. 13, NSTRA. SRA. DE VISITACION (",1,1,0,active,Sectarian,Standalone School,True,True,True,"ABM,HUMSS,STEM,TVL",0100000000,Region I (Ilocos Region),0102800000,Ilocos Norte,0102812000,City of Laoag ,0102812045,"Bgy. No. 13, Nstra. Sra. De Visitacion ",,psgc_no_validation,U,3rd
400278,Holy Spirit Academy of Laoag,,,no_coords,invalid,Region I,Region I,Laoag City,ILOCOS NORTE,LAOAG CITY (Capital),"BGY. NO. 15, SAN GUILLERMO (POB.)",1,1,0,active,Non-Sectarian,Standalone School,True,True,True,"ABM,HUMSS,STEM,TVL",0100000000,Region I (Ilocos Region),0102800000,Ilocos Norte,0102812000,City of Laoag ,0102812058,"Bgy. No. 15, San Guillermo ",,psgc_no_validation,U,3rd
400279,Ilocos Norte Adventist School Inc.,18.0,120.0,suspect,round_coordinates,Region I,Region I,Laoag City,ILOCOS NORTE,LAOAG CITY (Capital),"BGY. NO. 19, SANTA MARCELA (POB.)",0,0,0,active,Non-Sectarian,Standalone School,True,False,False,,0100000000,Region I (Ilocos Region),0102800000,Ilocos Norte,0102812000,City of Laoag ,0102812075,"Bgy. No. 19, Santa Marcela ",,psgc_no_validation,U,3rd
400280,"Kids'  Kollege, Inc.",18.2055536478638,120.595533021531,valid,,Region I,Region I,Laoag City,ILOCOS NORTE,LAOAG CITY (Capital),"BGY. NO. 12, SAN ISIDRO (POB.)",1,0,0,active,Non-Sectarian,Standalone School,True,False,False,,0100000000,Region I (Ilocos Region),0102800000,Ilocos Norte,0102812000,City of Laoag ,0102812059,"Bgy. No. 12, San Isidro ",0102812059,psgc_match,U,3rd
400282,Laoag Four Square Kindergarten Sch. Inc.,18.192593,120.6048427,valid,,Region I,Region I,Laoag City,ILOCOS NORTE,LAOAG CITY (Capital),"BGY. NO. 26, SAN MARCELINO (POB.)",0,0,0,active,Sectarian,Standalone School,True,False,False,,0100000000,Region I (Ilocos Region),0102800000,Ilocos Norte,0102812000,City of Laoag ,0102812063,"Bgy. No. 26, San Marcelino ",0102812063,psgc_match,R,3rd
400283,EDUCARE SCHOOL HOUSE,7.91145,125.0945,valid,,Region X,Region X,Valencia City,BUKIDNON,CITY OF VALENCIA,POBLACION,0,0,0,active,Non-Sectarian,Standalone School,True,False,False,,1000000000,Region X (Northern Mindanao),1001300000,Bukidnon,1001321000,City of Valencia,1001321024,Poblacion,1001321024,psgc_match,U,1st
400285,Northern Christian College Basic Education School,18.20274,120.59198,valid,,Region I,Region I,Laoag City,ILOCOS NORTE,LAOAG CITY (Capital),"BGY. NO. 5, SAN PEDRO (POB.)",1,1,0,active,Non-Sectarian,Standalone School,True,True,True,"HUMSS,STEM",0100000000,Region I (Ilocos Region),0102800000,Ilocos Norte,0102812000,City of Laoag ,0102812068,"Bgy. No. 5, San Pedro ",0102812068,psgc_match,R,3rd
400286,"Northside Bible Baptist Academy, Inc.",18.0,121.0,suspect,round_coordinates,Region I,Region I,Laoag City,ILOCOS NORTE,LAOAG CITY (Capital),"BGY. NO. 7-A, NSTRA. SRA. DE NATIVIDAD (",0,0,0,active,Sectarian,Standalone School,True,True,False,,0100000000,Region I (Ilocos Region),0102800000,Ilocos Norte,0102812000,City of Laoag ,0102812042,"Bgy. No. 7-A, Nstra. Sra. De Natividad ",1408104018,psgc_mismatch,R,3rd
400287,Northwestern University,18.185173,120.56704,valid,,Region I,Region I,Laoag City,ILOCOS NORTE,LAOAG CITY (Capital),"BGY. NO. 47, BENGCAG",1,1,0,active,Non-Sectarian,Standalone School,True,True,True,"ABM,HUMSS,Maritime,STEM,TVL",0100000000,Region I (Ilocos Region),0102800000,Ilocos Norte,0102812000,City of Laoag ,0102812008,"Bgy. No. 47, Bengcag",0102812008,psgc_match,U,3rd
400288,"Our Saviour's Foundation, Inc.",18.201854,120.588131,valid,,Region I,Region I,Laoag City,ILOCOS NORTE,LAOAG CITY (Capital),"BGY. NO. 2, SANTA JOAQUINA (POB.)",1,1,0,active,Non-Sectarian,Standalone School,True,True,True,"ABM,HUMSS,STEM",0100000000,Region I (Ilocos Region),0102800000,Ilocos Norte,0102812000,City of Laoag ,0102812074,"Bgy. No. 2, Santa Joaquina ",0102812074,psgc_match,U,3rd
400289,"Padre Annibale Integrated School, Inc.",14.57929,121.06494,suspect,placeholder_default,Region I,Region I,Laoag City,ILOCOS NORTE,LAOAG CITY (Capital),"BGY. NO. 23, SAN MATIAS (POB.)",0,0,0,active,Non-Sectarian,Standalone School,True,False,False,,0100000000,Region I (Ilocos Region),0102800000,Ilocos Norte,0102812000,City of Laoag ,0102812065,"Bgy. No. 23, San Matias ",1381200013,psgc_mismatch,U,3rd
400290,"Saved by Grace Christian Academy, Inc.",18.189164,120.576878,valid,,Region I,Region I,Laoag City,ILOCOS NORTE,LAOAG CITY (Capital),"BGY. NO. 44, ZAMBOANGA",0,0,0,active,Sectarian,Standalone School,True,False,False,,0100000000,Region I (Ilocos Region),0102800000,Ilocos Norte,0102812000,City of Laoag ,0102812084,"Bgy. No. 44, Zamboanga",0102812038,psgc_mismatch,R,3rd
400291,"St. Joseph High School of Laoag, Inc.",18.19298,120.60906,valid,,Region I,Region I,Laoag City,ILOCOS NORTE,LAOAG CITY (Capital),"BGY. NO. 28, SAN BERNARDO (POB.)",1,1,0,active,Sectarian,Standalone School,False,True,True,GAS,0100000000,Region I (Ilocos Region),0102800000,Ilocos Norte,0102812000,City of Laoag ,0102812055,"Bgy. No. 28, San Bernardo ",0102812055,psgc_match,R,3rd
400294,"The Living Gates of Praise Christian School,Inc.",18.1998616972763,120.594614487402,valid,,Region I,Region I,Laoag City,ILOCOS NORTE,LAOAG CITY (Capital),"BGY. NO. 10, SAN JOSE (POB.)",0,0,0,active,Non-Sectarian,Standalone School,True,False,False,,0100000000,Region I (Ilocos Region),0102800000,Ilocos Norte,0102812000,City of Laoag ,0102812061,"Bgy. No. 10, San Jose ",0102812061,psgc_match,U,3rd
400297,Clark Educational Center Inc.,15.93044,120.35343,valid,,Region I,Region I,San Carlos City,PANGASINAN,SAN CARLOS CITY,PNR STATION SITE,1,1,0,active,Non-Sectarian,Standalone School,True,True,True,"ABM,HUMSS,STEM",0100000000,Region I (Ilocos Region),0105500000,Pangasinan,0105532000,City of San Carlos,0105532081,PNR Station Site,0105532081,psgc_match,R,2nd
400298,Ednas School of San Carlos,15.93752,120.34094,valid,,Region I,Region I,San Carlos City,PANGASINAN,SAN CARLOS CITY,ROXAS BOULEVARD (POB.),1,0,0,active,Non-Sectarian,Standalone School,True,True,False,,0100000000,Region I (Ilocos Region),0105500000,Pangasinan,0105532000,City of San Carlos,0105532076,Roxas Boulevard ,0105532076,psgc_match,U,2nd
400300,"Gospel of Christ  School of San Carlos, Inc.",15.898934,120.320487,valid,,Region I,Region I,San Carlos City,PANGASINAN,SAN CARLOS CITY,SAN PEDRO-TALOY,1,1,0,active,Non-Sectarian,Standalone School,True,True,True,"ABM,GAS,HUMSS,STEM,TVL",0100000000,Region I (Ilocos Region),0105500000,Pangasinan,0105532000,City of San Carlos,0105532079,San Pedro-Taloy,0105532072,psgc_mismatch,U,2nd
400301,Holy Child Play Center,15.0869,120.3576,valid,,Region I,Region I,San Carlos City,PANGASINAN,SAN CARLOS CITY,PEREZ BOULEVARD (POB.),0,1,1,active,Non-Sectarian,Standalone School,True,False,False,,0100000000,Region I (Ilocos Region),0105500000,Pangasinan,0105532000,City of San Carlos,0105532071,Perez Boulevard ,0307111001,psgc_mismatch,U,2nd
400302,Dagat Kidavao Baptist Christian School Inc.,,,no_coords,no_submission,Region X,Region X,Valencia City,BUKIDNON,CITY OF VALENCIA,DAGAT-KIDAVAO,0,0,0,active,Non-Sectarian,Standalone School,True,False,False,,1000000000,Region X (Northern Mindanao),1001300000,Bukidnon,1001321000,City of Valencia,1001321008,Dagat-Kidavao,,psgc_no_validation,U,1st
400303,Mother Goose Special School System,15.0,120.0,suspect,coordinate_cluster,Region I,Region I,San Carlos City,PANGASINAN,SAN CARLOS CITY,BONIFACIO (POB.),1,0,0,active,Non-Sectarian,Standalone School,True,True,False,,0100000000,Region I (Ilocos Region),0105500000,Pangasinan,0105532000,City of San Carlos,0105532020,Bonifacio ,,psgc_no_validation,R,2nd
400304,"Palaris Colleges, Inc.",15.0869,120.3576,valid,,Region I,Region I,San Carlos City,PANGASINAN,SAN CARLOS CITY,PEREZ BOULEVARD (POB.),0,1,1,active,Non-Sectarian,Standalone School,False,True,True,"ABM,GAS,HUMSS,TVL",0100000000,Region I (Ilocos Region),0105500000,Pangasinan,0105532000,City of San Carlos,0105532071,Perez Boulevard ,0307111001,psgc_mismatch,U,2nd
400305,Rainbow School of San Carlos,15.926209,120.348761,valid,,Region I,Region I,San Carlos City,PANGASINAN,SAN CARLOS CITY,MABINI (POB.),0,0,0,active,Non-Sectarian,Standalone School,True,False,False,,0100000000,Region I (Ilocos Region),0105500000,Pangasinan,0105532000,City of San Carlos,0105532046,Mabini ,0105532046,psgc_match,U,2nd
400306,San Carlos College,15.9264793,120.3503185,valid,,Region I,Region I,San Carlos City,PANGASINAN,SAN CARLOS CITY,MABINI (POB.),1,1,0,active,Sectarian,Standalone School,True,True,True,"ABM,HUMSS,STEM,TVL",0100000000,Region I (Ilocos Region),0105500000,Pangasinan,0105532000,City of San Carlos,0105532046,Mabini ,0105532046,psgc_match,U,2nd
400307,San Carlos Preparatory School,15.9217607798095,120.352265709008,valid,,Region I,Region I,San Carlos City,PANGASINAN,SAN CARLOS CITY,ILANG,1,1,0,active,Sectarian,Standalone School,True,True,True,"ABM,GAS,TVL",0100000000,Region I (Ilocos Region),0105500000,Pangasinan,0105532000,City of San Carlos,0105532037,Ilang,0105532037,psgc_match,U,2nd
400308,VMUF-San Luis High School,15.904221,120.306485,valid,,Region I,Region I,San Carlos City,PANGASINAN,SAN CARLOS CITY,TALANG,1,0,0,active,Non-Sectarian,Standalone School,False,True,False,,0100000000,Region I (Ilocos Region),0105500000,Pangasinan,0105532000,City of San Carlos,0105532083,Talang,0105532083,psgc_match,U,2nd
400309,St. Charles Academy,14.57929,121.06494,suspect,placeholder_default,Region I,Region I,San Carlos City,PANGASINAN,SAN CARLOS CITY,BONIFACIO (POB.),1,1,0,active,Sectarian,Standalone School,True,True,True,"ABM,HUMSS,STEM,TVL",0100000000,Region I (Ilocos Region),0105500000,Pangasinan,0105532000,City of San Carlos,0105532020,Bonifacio ,1381200013,psgc_mismatch,R,2nd
400310,VMUF - St. Dominic High School,15.919957,120.341439,valid,,Region I,Region I,San Carlos City,PANGASINAN,SAN CARLOS CITY,SAN PEDRO-TALOY,1,0,0,active,Non-Sectarian,Standalone School,False,True,False,,0100000000,Region I (Ilocos Region),0105500000,Pangasinan,0105532000,City of San Carlos,0105532079,San Pedro-Taloy,0105532079,psgc_match,U,2nd
400311,St. Therese College Foundation,15.920282,120.350537,valid,,Region I,Region I,San Carlos City,PANGASINAN,SAN CARLOS CITY,PALARIS (POB.),1,1,0,active,Non-Sectarian,Standalone School,True,True,True,HUMSS,0100000000,Region I (Ilocos Region),0105500000,Pangasinan,0105532000,City of San Carlos,0105532061,Palaris ,0105532091,psgc_mismatch,U,2nd
400312,Virgen Milagrosa Special Science High School,15.920683,120.341448,valid,,Region I,Region I,San Carlos City,PANGASINAN,SAN CARLOS CITY,SAN PEDRO-TALOY,1,0,0,active,Non-Sectarian,Standalone School,False,True,False,,0100000000,Region I (Ilocos Region),0105500000,Pangasinan,0105532000,City of San Carlos,0105532079,San Pedro-Taloy,0105532079,psgc_match,U,2nd
400313,VM Child Learning Center,15.91982,120.341383,valid,,Region I,Region I,San Carlos City,PANGASINAN,SAN CARLOS CITY,SAN PEDRO-TALOY,0,0,0,active,Non-Sectarian,Standalone School,True,False,False,,0100000000,Region I (Ilocos Region),0105500000,Pangasinan,0105532000,City of San Carlos,0105532079,San Pedro-Taloy,0105532079,psgc_match,U,2nd
400315,"Divine Grace Montessori and High School of Urdaneta, Inc.",15.9810290775613,120.57135210205,valid,,Region I,Region I,Urdaneta City,PANGASINAN,CITY OF URDANETA,SAN VICENTE,1,1,1,active,Sectarian,Standalone School,True,True,True,"ABM,GAS,HUMSS,STEM",0100000000,Region I (Ilocos Region),0105500000,Pangasinan,0105546000,City of Urdaneta,0105546034,San Vicente,0105546034,psgc_match,U,1st
400316,Divine Word College of Urdaneta,15.98,120.58,suspect,round_coordinates,Region I,Region I,Urdaneta City,PANGASINAN,CITY OF URDANETA,BAYAOAS,1,1,0,active,Sectarian,Standalone School,True,True,True,"ABM,HUMSS,STEM",0100000000,Region I (Ilocos Region),0105500000,Pangasinan,0105546000,City of Urdaneta,0105546005,Bayaoas,0105546005,psgc_match,U,1st
400318,Lyceum Northern Luzon Elem/High School,15.9833879,120.5715032,valid,,Region I,Region I,Urdaneta City,PANGASINAN,CITY OF URDANETA,SAN VICENTE,1,1,0,active,Non-Sectarian,Standalone School,True,True,True,"ABM,GAS,HUMSS,STEM,TVL",0100000000,Region I (Ilocos Region),0105500000,Pangasinan,0105546000,City of Urdaneta,0105546034,San Vicente,0105546034,psgc_match,U,1st
400319,"Merryland Montessori and High School, Inc.",15.9792112,120.5659837,valid,,Region I,Region I,Urdaneta City,PANGASINAN,CITY OF URDANETA,SAN VICENTE,1,1,0,active,Non-Sectarian,Standalone School,True,True,True,"HUMSS,STEM",0100000000,Region I (Ilocos Region),0105500000,Pangasinan,0105546000,City of Urdaneta,0105546034,San Vicente,0105546034,psgc_match,U,1st
400321,"Mother Goose Special School System, Inc.",14.57929,121.06494,suspect,placeholder_default,Region I,Region I,Urdaneta City,PANGASINAN,CITY OF URDANETA,BAYAOAS,1,0,0,active,Non-Sectarian,Standalone School,True,True,False,,0100000000,Region I (Ilocos Region),0105500000,Pangasinan,0105546000,City of Urdaneta,0105546005,Bayaoas,1381200013,psgc_mismatch,U,1st
400324,Our Lady of the Lilies Academy,15.985864,120.572342,valid,,Region I,Region I,Urdaneta City,PANGASINAN,CITY OF URDANETA,POBLACION,1,1,0,active,Sectarian,Standalone School,True,True,True,"ABM,HUMSS,STEM",0100000000,Region I (Ilocos Region),0105500000,Pangasinan,0105546000,City of Urdaneta,0105546032,Poblacion,0105546034,psgc_mismatch,U,1st
400325,"Panpacific University, Inc.",,,no_coords,no_submission,Region I,Region I,Urdaneta City,PANGASINAN,CITY OF URDANETA,SAN VICENTE,0,0,0,active,Non-Sectarian,Standalone School,True,True,True,"HUMSS,STEM,TVL",0100000000,Region I (Ilocos Region),0105500000,Pangasinan,0105546000,City of Urdaneta,0105546034,San Vicente,,psgc_no_validation,U,1st
400326,"St. Andrew Montessori and High School, Inc.",15.9591790224343,120.575426963531,valid,,Region I,Region I,Urdaneta City,PANGASINAN,CITY OF URDANETA,NANCAYASAN,1,1,0,active,Non-Sectarian,Standalone School,True,True,True,"ABM,GAS,HUMSS,TVL",0100000000,Region I (Ilocos Region),0105500000,Pangasinan,0105546000,City of Urdaneta,0105546027,Nancayasan,0105546027,psgc_match,U,1st
400330,The Little Angels of St. Francis Learning Center Inc.,16.94146,121.77499,valid,,Region II,Region II,Cauayan City,ISABELA,CITY OF CAUAYAN,DISTRICT III (POB.),0,0,0,active,Non-Sectarian,Standalone School,True,False,False,,0200000000,Region II (Cagayan Valley),0203100000,Isabela,0203108000,City of Cauayan,0203108033,District III ,0203108070,psgc_mismatch,U,2nd
400331,Divine Word High School of Dana-Ili,18.4178798547467,121.419996654232,valid,,Region II,Region II,Cagayan,CAGAYAN,ABULUG,DANA-ILI,1,1,0,active,Sectarian,Standalone School,False,True,True,"ABM,HUMSS",0200000000,Region II (Cagayan Valley),0201500000,Cagayan,0201501000,Abulug,0201501008,Dana-Ili,0201501008,psgc_match,R,2nd
400332,Lyceum of Abulug Inc.,18.33,121.47,suspect,round_coordinates,Region II,Region II,Cagayan,CAGAYAN,ABULUG,CENTRO (POB.),1,1,0,active,Non-Sectarian,Standalone School,False,True,True,HUMSS,0200000000,Region II (Cagayan Valley),0201500000,Cagayan,0201501000,Abulug,0201501007,Centro ,0201501009,psgc_mismatch,R,2nd
400334,"Lyceum of Alcala,Inc.",17.9029105656457,121.653402536051,valid,,Region II,Region II,Cagayan,CAGAYAN,ALCALA,CENTRO NORTE (POB.),1,1,0,active,Sectarian,Standalone School,True,True,True,"HUMSS,STEM",0200000000,Region II (Cagayan Valley),0201500000,Cagayan,0201502000,Alcala,0201502010,Centro Norte ,0201502010,psgc_match,R,1st
400335,St. Philomene of Alcala Inc.,17.90927,121.60022,valid,,Region II,Region II,Cagayan,CAGAYAN,ALCALA,CENTRO SUR (POB.),1,1,0,active,Non-Sectarian,Standalone School,False,True,True,"ABM,HUMSS,STEM",0200000000,Region II (Cagayan Valley),0201500000,Cagayan,0201502000,Alcala,0201502011,Centro Sur ,0201526021,psgc_mismatch,R,1st
400336,Allacapan Institute Incorporated,18.22533,121.55471,valid,,Region II,Region II,Cagayan,CAGAYAN,ALLACAPAN,CENTRO WEST (POB.),1,1,0,active,Non-Sectarian,Standalone School,False,True,True,"GAS,HUMSS",0200000000,Region II (Cagayan Valley),0201500000,Cagayan,0201503000,Allacapan,0201503011,Centro West ,0201503011,psgc_match,R,1st
400337,Cataratan SDA Multigrade School,18.0,121.0,suspect,round_coordinates,Region II,Region II,Cagayan,CAGAYAN,ALLACAPAN,CATARATAN,0,0,0,active,Sectarian,Standalone School,True,False,False,,0200000000,Region II (Cagayan Valley),0201500000,Cagayan,0201503000,Allacapan,0201503009,Cataratan,1408104018,psgc_mismatch,R,1st
400339,Our Lady Of Victories Academy Inc.,17.83778,121.723,valid,,Region II,Region II,Cagayan,CAGAYAN,AMULUNG,CENTRO,1,1,0,active,Sectarian,Standalone School,True,True,True,"HUMSS,STEM",0200000000,Region II (Cagayan Valley),0201500000,Cagayan,0201504000,Amulung,0201504020,Centro,0201504020,psgc_match,U,1st
400343,Bukig UMC Kiddie Kollege,18.3097931,121.611456,valid,,Region II,Region II,Cagayan,CAGAYAN,APARRI,BUKIG,0,0,0,active,Sectarian,Standalone School,True,False,False,,0200000000,Region II (Cagayan Valley),0201500000,Cagayan,0201505000,Aparri,0201505019,Bukig,0201505019,psgc_match,R,1st
400344,"Cagayan Valley Institute, Inc.",18.5453669,121.6076016,valid,,Region II,Region II,Cagayan,CAGAYAN,APARRI,CENTRO   1 (POB.),1,1,0,active,Sectarian,Standalone School,False,True,True,"ABM,HUMSS",0200000000,Region II (Cagayan Valley),0201500000,Cagayan,0201505000,Aparri,0201505005,Centro 1 ,,psgc_no_validation,R,1st
400345,Lyceum of Aparri,18.34716,121.64337,valid,,Region II,Region II,Cagayan,CAGAYAN,APARRI,MACANAYA (PESCARIA),1,1,0,active,Sectarian,Standalone School,True,True,True,"ABM,HUMSS,STEM",0200000000,Region II (Cagayan Valley),0201500000,Cagayan,0201505000,Aparri,0201505029,Macanaya,0201505029,psgc_match,U,1st
400348,Charis Christian Academy Foundation Inc.,16.916624,121.787924,valid,,Region II,Region II,Cauayan City,ISABELA,CITY OF CAUAYAN,DISTRICT II (POB.),0,0,0,active,Non-Sectarian,Standalone School,True,False,False,,0200000000,Region II (Cagayan Valley),0203100000,Isabela,0203108000,City of Cauayan,0203108032,District II ,0203108009,psgc_mismatch,U,2nd
400349,St. Paul School of Aparri,18.35799,121.63811,valid,,Region II,Region II,Cagayan,CAGAYAN,APARRI,SAN ANTONIO,1,0,0,active,Sectarian,Standalone School,True,True,True,GAS,0200000000,Region II (Cagayan Valley),0201500000,Cagayan,0201505000,Aparri,0201505038,San Antonio,0201505038,psgc_match,U,1st
400350,"St. Joseph's College of Baggao, Inc.",17.8916284,121.8653517,valid,,Region II,Region II,Cagayan,CAGAYAN,BAGGAO,SAN JOSE,1,1,0,active,Sectarian,Standalone School,True,True,True,"ABM,HUMSS,STEM",0200000000,Region II (Cagayan Valley),0201500000,Cagayan,0201506000,Baggao,0201506035,San Jose,0201506035,psgc_match,U,1st
400351,San Jose Methodist Kiddie Christian  School Inc.,17.898372,121.8804871,valid,,Region II,Region II,Cagayan,CAGAYAN,BAGGAO,SAN JOSE,0,0,0,active,Non-Sectarian,Standalone School,True,False,False,,0200000000,Region II (Cagayan Valley),0201500000,Cagayan,0201506000,Baggao,0201506035,San Jose,0201506004,psgc_mismatch,U,1st
400352,"Balleteros Adventist Multigrade School, INC.",18.41291,121.50874,valid,,Region II,Region II,Cagayan,CAGAYAN,BALLESTEROS,CENTRO WEST (POB.),0,0,0,active,Non-Sectarian,Standalone School,True,False,False,,0200000000,Region II (Cagayan Valley),0201500000,Cagayan,0201507000,Ballesteros,0201507009,Centro West ,0201507009,psgc_match,R,2nd
400353,"Northern Cagayan Colleges Foundation, Inc",18.41181,121.51468,fixed_swap,,Region II,Region II,Cagayan,CAGAYAN,BALLESTEROS,CENTRO EAST (POB.),1,1,0,active,Non-Sectarian,Standalone School,True,True,True,GAS,0200000000,Region II (Cagayan Valley),0201500000,Cagayan,0201507000,Ballesteros,0201507008,Centro East ,0201507008,psgc_match,U,2nd
